,AIRPORT,LATITUDE,LONGITUDE,DISPLAY_AIRPORT_NAME
0,01A,58.10944444,-152.90666667,Afognak Lake Airport
1,03A,65.54805556,-161.07166667,Bear Creek Mining Strip
2,04A,68.08333333,-163.16666667,Lik Mining Camp
3,05A,67.57,-148.18388889,Little Squaw Airport
4,06A,57.74527778,-152.88277778,Kizhuyak Bay
5,07A,55.55472222,-133.10166667,Klawock Seaplane Base
6,08A,59.15694444,-151.82916667,Elizabeth Island Airport
7,09A,59.36277778,-153.43055556,Augustin Island
9,1B1,42.29138889,-73.71027778,Columbia County
11,1G4,35.98611111,-113.81694444,Grand Canyon West
12,1N7,40.97111111,-74.9975,Blairstown Airport
13,8F3,33.62388889,-101.24083333,Crosbyton Municipal
15,A01,64.36361111,-147.36388889,Blair Lake
16,A02,57.06666667,-153.93777778,Deadmans Bay Airport
17,A03,58.4575,-154.02333333,Hallo Bay Airport
18,A04,57.27722222,-154.34222222,Red Lake Airport
19,A05,61.96388889,-151.55583333,Shell Lake Airport
20,A06,65.65555556,-165.35638889,Navigator Airstrip
22,A07,66.76611111,-160.15277778,Roland Norton Memorial
23,A08,56.59805556,-134.24277778,Pillar Bay Airport
26,A09,60.48166667,-146.58416667,Johnstone Point Airport
28,KTH,59.95555556,-158.48055556,Tikchik Lodge Airport
29,A11,60.78388889,-159.54027778,Bell Creek Airport
30,A12,60.78527778,-158.86444444,Cinnabar Airport
31,A13,61.39027778,-157.99555556,Mountaintop Mine Airport
32,A14,61.18888889,-159.85833333,Whitebear Airport
35,A16,70.74694444,-155.36083333,Arley Lake Airport
36,A17,58.06555556,-153.0725,Port Vita Airport
37,A18,63.54166667,-150.99388889,Kantishna Airport
38,A20,70.34416667,-150.94472222,Alpine Airstrip
39,A21,65.85138889,-164.70277778,Serpentine Airport
40,A22,53.97277778,-166.85694444,Driftwood Bay Airport
41,A23,59.77611111,-151.96361111,Bradley Lake Airport
42,A24,59.33166667,-135.89666667,Chilkat Lake Airport
43,A25,59.28833333,-136.17388889,Nugget Creek Airport
44,A26,68.48333333,-155.73333333,Ivotuk Airstrip
45,A27,64.44,-144.93638889,Pogo Mines Airport
46,A28,57.25388889,-154.42222222,Ayakulik River Airport
47,A29,57.32305556,-153.14944444,Kiluda Bay Airport
48,A30,57.96388889,-153.05833333,Terror Lake Airport
49,A31,58.98277778,-153.18333333,Selief Bay Airport
50,A34,58.36194444,-152.31222222,Laura Lake Airport
51,A36,55.56027778,-131.65555556,Deep Bay Airport
53,A37,61.89888889,-161.43972222,Kako Airport
54,A38,64.09722222,-143.26666667,Molly Creek Airport
55,A39,61.86611111,-141.15972222,Ptarmigan Lake Airport
56,A40,71.05694444,-154.72833333,Cape Simpson Airport
59,A42,70.35833333,-153.19666667,Teshepkuk Lake Airport
60,A43,57.78083333,-152.39111111,Trident Basin Seaplane Base
61,A45,57.81666667,-134.58333333,Lake Florence Airport
62,A46,57.7,-134.26666667,Lake Hasselborg Airport
63,A47,57.61666667,-134.36666667,Distin Lake Airport
64,A48,57.15,-153.15,Port Hobron Airport
65,A49,70.28444444,-152.21194444,Mooseville Airstrip Airport
66,A50,58.5625,-152.59611111,Big Bay Airport
67,A51,64.35277778,-151.275,Wien Lake Airport
68,A52,59.96388889,-152.68222222,Silver Salmon Creek Airport
69,A53,64.33333333,-147.5,Blear Lake Airport
70,A54,53.68333333,-166.75,Cannery Bay Airport
71,A56,56.03666667,-160.26611111,Johnsons Landing
73,A57,58.26666667,-157.53333333,International Seafoods Airport
74,A58,64.5,-151.66666667,Cosna River Airport
75,A59,68.48777778,-155.7575,Ivatuk Airport
77,A61,54.5825,-164.91444444,Cape Sarichef Airport
78,A62,60.86777778,-157.39194444,Taylor Mountain
80,A63,65.31138889,-143.13555556,Coal Creek
81,A65,57.53833333,-154.16444444,Karluk Portage Airport
84,A66,60.90722222,-149.62277778,Hope Airport
85,A67,57.84944444,-153.11527778,Viekoda Bay Airport
86,A69,55.74,-162.12527778,Cathedral Strip
87,A70,57.77416667,-153.54472222,Village Islands Airport
88,A71,59.73833333,-151.03,Bear Cove Farm
89,A72,59.83333333,-152.58472222,Chinitna Bay Airport
90,A73,63.7325,-148.91055556,McKinley National Park
91,A74,59.24111111,-151.87722222,Dog Fish Bay
92,A75,58.17194444,-152.89416667,Malina Bay Airport
93,A76,58.46444444,-152.59305556,Red Fox Bay Airport
94,A77,57.34333333,-152.89722222,Shearwater Airport
95,A78,71.03,-154.44361111,Lake
96,A79,71.50166667,-154.03388889,Cape Simpson No. 1
97,A80,70.57388889,-155.32138889,Cape Simpson No. 7
98,A81,70.66277778,-154.83666667,Cape Simpson #1
99,A82,60.69027778,-151.28888889,Nikiski Private Airstrip
100,A83,59.37638889,-150.765,Petrof Point Airport
101,A84,63.75555556,-147.93,Denali West Lodge Private
102,A85,61.85944444,-154.27666667,Big River Airport
103,A87,58.58305556,-152.44583333,Carry Inlet Airport
104,A89,59.925,-147.51666667,Montague Island Airport
105,A90,59.03916667,-158.46388889,Shannon Pond Airport
106,A91,69.15555556,-163.49722222,Omalik Lagoon Airport
107,A92,69.14805556,-163.51027778,Omolik Lagoon Airport
108,A93,59.79166667,-151.26666667,Bradley Lake Project Airport
109,A94,70.57416667,-155.31805556,Ice Strip
110,A95,70.31194444,-153.24916667,Ice Strip
111,A96,70.98083333,-157.095,Ice Strip
112,A97,68.98555556,-163.47972222,Akulik Air Strip
113,A98,69.17083333,-163.25638889,Deadfall Air Strip
114,A99,68.67666667,-162.64694444,Eagle Creek Airport
115,AA1,59.95277778,-162.61694444,Ice Kong
116,AA4,59.63333333,-151.20833333,Glacier Split
117,AA5,66.95583333,-155.615,Selby Lake Airport
126,AAF,29.7275,-85.0275,Apalachicola Regional Cleve Randolph Field
156,ABE,40.65222222,-75.44055556,Lehigh Valley International
159,ABI,32.41138889,-99.68194444,Abilene Regional
166,ABL,67.0875,-157.84583333,Ambler River
169,ABQ,35.03888889,-106.60833333,Albuquerque International Sunport
172,ABR,45.44833333,-98.4225,Aberdeen Regional
183,ABY,31.53555556,-84.19444444,Southwest Georgia Regional
190,ACB,44.98861111,-85.19833333,Antrim County
202,ACK,41.25305556,-70.06,Nantucket Memorial
204,ACT,31.61222222,-97.23027778,Waco Regional
208,ACV,40.97777778,-124.10833333,Arcata
212,ACY,39.4575,-74.57722222,Atlantic City International
228,ADK,51.87805556,-176.64611111,Adak
232,ADM,34.30416667,-97.02055556,Ardmore Municipal
237,ADQ,57.75,-152.49388889,Kodiak Airport
239,ADS,32.96861111,-96.83638889,Addison
242,ADW,38.81083333,-76.86694444,Joint Base Andrews
249,AED,58.03333333,-152.9,Aleneva Airport
264,AET,66.55194444,-152.62222222,Allakaket Airport
266,AEX,31.3275,-92.54861111,Alexandria International
274,AFF,38.97416667,-104.81777778,USAF Academy Airfield
278,AFK,40.60666667,-95.86666667,Nebraska City Municipal
280,AFO,42.70888889,-110.94222222,Afton Municipal
282,AFP,35.02055556,-80.07722222,Anson County
284,AFW,32.98777778,-97.31888889,Fort Worth Alliance
295,AGC,40.35444444,-79.92916667,Allegheny County
306,AGN,57.50388889,-134.58333333,Angoon Seaplane Base
318,AGS,33.37,-81.96444444,Augusta Regional at Bush Field
329,AHD,34.14694444,-97.12277778,Ardmore Downtown Executive
331,AHN,33.94861111,-83.32638889,Athens/Ben Epps
337,AHT,51.37861111,179.25861111,Amchitka
342,AIA,42.05333333,-102.80361111,Alliance Municipal
343,AIB,56.19,-132.44583333,Anita Bay Airport
345,AID,40.10861111,-85.61305556,Anderson Municipal-Darlington Field
347,AIK,33.64944444,-81.685,Aiken Municipal
349,AIN,70.63805556,-159.99472222,Wainwright Airport
355,AIZ,38.09611111,-92.54944444,Lee C Fine Memorial
375,AKB,52.22055556,-174.20611111,Atka Airport
376,AKC,41.0375,-81.46694444,Akron Fulton International
381,AKI,60.90277778,-161.23055556,Akiak Airport
386,AKK,56.93861111,-154.1825,Akhiok Airport
390,AKN,58.67638889,-156.64861111,King Salmon Airport
392,AKO,40.17555556,-103.22194444,Colorado Plains Regional
394,AKP,68.13361111,-151.74333333,Anaktuvuk Pass Airport
408,AL1,34.22916667,-86.25583333,Albertville Regional-Thomas J Brumlik Field
410,AL2,33.17777778,-86.78333333,Shelby County
413,AL3,34.85944444,-86.5575,Huntsville Executive Airport Tom Sharp Jr
418,ALB,42.74916667,-73.80194444,Albany International
424,ALE,30.38416667,-103.68361111,Alpine Casparis Municipal
433,ALI,27.74083333,-98.02694444,Alice International
439,ALM,32.84138889,-105.98888889,Alamogordo White Sands Regional
441,ALN,38.89,-90.04611111,St. Louis Regional
443,ALO,42.55694444,-92.40027778,Waterloo Regional
451,ALS,37.435,-105.86777778,San Luis Valley Regional/Bergman Field
456,ALW,46.09527778,-118.28583333,Walla Walla Regional
458,ALX,32.91472222,-85.96305556,Thomas C. Russell Field
461,ALZ,56.89583333,-154.24583333,Alitak Seaplane Base
464,AMA,35.21944444,-101.70583333,Rick Husband Amarillo International
475,AMK,37.20305556,-107.86916667,Animas Air Park
482,AMN,43.32222222,-84.68805556,Gratiot Community
491,AMW,41.99194444,-93.62194444,Ames Municipal
495,ANA,33.81666667,-117.93333333,Anaheim-Disneyland HP
498,ANB,33.58805556,-85.85805556,Anniston Regional
502,ANC,61.17416667,-149.99805556,Ted Stevens Anchorage International
504,AND,34.49444444,-82.70944444,Anderson Regional
513,ANI,61.58166667,-159.54305556,Aniak Airport
521,ANN,55.04222222,-131.57083333,Annette Island
526,ANP,38.94277778,-76.56833333,Lee
536,ANV,62.64722222,-160.19,Anvik Airport
540,AOH,40.70833333,-84.02694444,Lima Allen County
550,AOO,40.29638889,-78.32,Altoona-Blair County
553,AOS,57.45472222,-153.81305556,Amook Bay Airport
557,APA,39.57,-104.84944444,Centennial
563,APC,38.21305556,-122.28055556,Napa County
567,APF,26.1525,-81.77555556,Naples Municipal
569,APG,39.46611111,-76.16888889,Phillips AAF
575,APN,45.07805556,-83.56027778,Alpena County Regional
578,APT,35.06055556,-85.58527778,Marion County Brown Field
581,APV,34.57527778,-117.18611111,Apple Valley Airport
596,AQY,60.96888889,-149.11944444,Girdwood Airport
598,AR1,35.25916667,-93.09333333,Russellville Regional
600,AR2,35.08111111,-92.42444444,Dennis F Cantrell Field
603,ARA,30.03777778,-91.88388889,Acadiana Regional
605,ARB,42.22305556,-83.74555556,Ann Arbor Municipal
607,ARC,68.11472222,-145.57944444,Arctic Village Airport
614,ARG,36.12472222,-90.925,Walnut Ridge Regional
634,ART,43.99194444,-76.02055556,Watertown International
637,ARV,45.92805556,-89.73083333,Lakeland/Noble F. Lee Memorial Field
657,ASE,39.22194444,-106.86833333,Aspen Pitkin County Sardy Field
663,ASH,42.7825,-71.51416667,Boire Field
671,ASL,32.52055556,-94.30777778,Harrison County
676,ASN,33.56944444,-86.05111111,Talladega Municipal
684,ASQ,39.46805556,-117.1975,Austin Airport
689,AST,46.15805556,-123.87861111,Astoria Regional
695,ASX,46.54861111,-90.91888889,John F Kennedy Memorial
697,ASY,46.02388889,-99.3525,Ashley Municipal
702,ATE,34.1925,-95.64972222,Antlers Municipal
708,ATK,70.46722222,-157.43555556,Atqasuk Edward Burnell Sr. Memorial
713,ATL,33.63666667,-84.42777778,Hartsfield-Jackson Atlanta International
721,ATO,39.21194444,-82.22916667,Ohio University Snyder Field
729,ATS,32.85166667,-104.46722222,Artesia Municipal
732,ATT,60.86777778,-162.27416667,Atmautluak Airport
734,ATU,52.8325,173.17555556,Casco Cove CGS
739,ATW,44.25805556,-88.51916667,Outagamie County Regional
742,ATY,44.91388889,-97.15472222,Watertown Regional
752,AUG,44.32055556,-69.79722222,Augusta State
757,AUK,62.68305556,-164.72222222,Alakanuk Airport
759,AUM,43.66277778,-92.93305556,Austin Municipal
761,AUN,38.95472222,-121.08166667,Auburn Municipal
763,AUO,32.615,-85.43388889,Auburn University Regional
772,AUS,30.19444444,-97.67,Austin - Bergstrom International
775,AUW,44.92638889,-89.62666667,Wausau Downtown
782,AUZ,41.77194444,-88.47555556,Aurora Municipal
789,AVL,35.43611111,-82.54194444,Asheville Regional
794,AVO,27.59138889,-81.52888889,Avon Park Executive
797,AVP,41.33833333,-75.72333333,Wilkes Barre Scranton International
801,AVW,32.40944444,-111.21833333,Marana Regional
808,AWM,35.135,-90.23444444,West Memphis Municipal
812,AWX,32.33083333,-102.52972222,Andrews County
819,AXB,44.31666667,-75.89972222,Maxson Airfield
831,AXN,45.86638889,-95.39472222,Chandler Field
836,AXS,34.69888889,-99.33833333,Altus/Quartz Mountain Regional
842,AXV,40.49361111,-84.29805556,Neil Armstrong
844,AXX,36.42194444,-105.29,Angel Fire
854,AYS,31.24833333,-82.39527778,Waycross-Ware County
860,AZ1,35.65055556,-112.14805556,Valle
862,AZ2,35.30555556,-112.19444444,H. A. Clark Memorial Field
864,AZ3,33.52694444,-112.29527778,Glendale Municipal
866,AZA,33.30777778,-111.65555556,Phoenix - Mesa Gateway
872,AZO,42.23444444,-85.55166667,Kalamazoo/Battle Creek International
875,B19,43.46416667,-70.4725,Biddeford Municipal
878,B21,45.08555556,-70.21638889,Sugarloaf Regional
882,BAB,39.13611111,-121.43666667,Beale AFB
886,BAD,32.50194444,-93.6625,Barksdale AFB
890,BAF,42.15805556,-72.71583333,Westfield Barnes Regional
906,BAM,40.59916667,-116.87444444,Battle Mountain Airport
910,BAR,55.36666667,-133.6,Baker AAF
926,BBC,28.97333333,-95.86333333,Bay City Municipal
948,BBX,40.1375,-75.26527778,Wings Field
957,BCB,37.20777778,-80.40777778,Virginia Tech/Montgomery Executive
958,BCC,57.6175,-155.86722222,Bear Creek Airport
961,BCE,37.70638889,-112.14583333,Bryce Canyon Airport
967,BCJ,37.96666667,-105.76666667,Baca Grande
975,BCS,29.86611111,-90.02222222,Southern Seaplane
976,BCT,26.37083333,-80.10833333,Boca Raton Public
984,BDE,48.72833333,-94.61222222,Baudette International
986,BDG,37.58333333,-109.48333333,Blanding Municipal
998,BDL,41.93916667,-72.68333333,Bradley International
1013,BDR,41.16333333,-73.12611111,Igor I Sikorsky Memorial
1020,BDY,43.08638889,-124.40777778,Bandon State
1026,BED,42.47,-71.28888889,Laurence G Hanscom Field
1038,BEH,42.12861111,-86.42611111,Southwest Michigan Regional
1054,BET,60.77861111,-161.83722222,Bethel Airport
1063,BFB,58.18333333,-152.13333333,Blue Fox Bay Airport
1065,BFD,41.80305556,-78.64,Bradford Regional
1068,BFF,41.87416667,-103.59555556,Western Neb. Regional/William B. Heilig Field
1070,BFI,47.53,-122.30194444,Boeing Field/King County International
1072,BFK,39.70166667,-104.75166667,Buckley AFB
1075,BFL,35.43388889,-119.05777778,Meadows Field
1077,BFM,30.62666667,-88.06805556,Mobile Downtown
1085,BFP,40.7725,-80.39138889,Beaver County
1088,BFR,38.84,-86.44527778,Virgil I Grissom Municipal
1093,BFT,32.41222222,-80.63444444,Beaufort County
1099,BGD,35.70083333,-101.39361111,Hutchinson County
1101,BGE,30.97166667,-84.63694444,Decatur County Industrial Air Park
1113,BGM,42.20833333,-75.97972222,Greater Binghamton/Edwin A. Link Field
1121,BGQ,61.53472222,-149.8125,Big Lake Airport
1123,BGR,44.8075,-68.82805556,Bangor International
1125,BGS,32.2125,-101.52166667,Big Spring McMahon-Wrinkle
1127,BGT,34.59583333,-113.17027778,Bagdad Airport
1140,BHB,44.44972222,-68.36166667,Hancock County-Bar Harbor
1143,IFP,35.15583333,-114.55944444,Laughlin/Bullhead International
1166,BHM,33.56388889,-86.75222222,Birmingham-Shuttlesworth International
1192,BIC,57.66666667,-157.58333333,Big Creek Airport
1194,BID,41.16805556,-71.57777778,Block Island State
1196,BIE,40.30138889,-96.75416667,Beatrice Municipal
1198,BIF,31.84944444,-106.38,Biggs AAF
1200,BIG,63.99472222,-145.72027778,Allen AAF
1202,BIH,37.37305556,-118.36361111,Eastern Sierra Regional
1206,BIL,45.80777778,-108.54277778,Billings Logan International
1220,BIS,46.77277778,-100.74583333,Bismarck Municipal
1224,BIX,30.41055556,-88.92444444,Keesler AFB
1225,BJC,39.90888889,-105.11722222,Rocky Mountain Metropolitan
1229,BJI,47.51083333,-94.93472222,Bemidji Regional
1232,BJJ,40.87472222,-81.88833333,Wayne County
1250,BKC,65.98166667,-161.14916667,Buckland Airport
1252,BKE,44.83722222,-117.80916667,Baker City Municipal
1253,BKF,58.6,-156.23333333,Brooks Lake Airport
1254,BKG,36.53194444,-93.20055556,Branson Airport
1256,BKH,22.02277778,-159.785,Barking Sands PMRF
1264,BKL,41.51777778,-81.68277778,Burke Lakefront
1280,BKW,37.78722222,-81.12416667,Raleigh County Memorial
1283,BKX,44.30444444,-96.81888889,Brookings Regional
1295,BLD,35.9475,-114.86138889,Boulder City Municipal
1299,BLF,37.29583333,-81.20777778,Mercer County
1303,BLH,33.61916667,-114.71694444,Blythe Airport
1305,BLI,48.79277778,-122.5375,Bellingham International
1313,BLM,40.18666667,-74.12444444,Monmouth Executive
1327,BLV,38.54527778,-89.83527778,Scott AFB/MidAmerica
1337,BMC,41.55444444,-112.06222222,Brigham City Airport
1344,BMG,39.14611111,-86.61666667,Monroe County
1348,BMI,40.47722222,-88.91583333,Central Illinois Regional
1352,BML,44.57527778,-71.17583333,Berlin Regional
1364,BMX,59.36111111,-155.25888889,Big Mountain AFS
1366,BNA,36.12444444,-86.67805556,Nashville International
1373,BNF,57.08916667,-134.83138889,Warm Spring Bay Seaplane Base
1376,BNG,33.9225,-116.85083333,Banning Municipal
1381,BNL,33.25805556,-81.38805556,Barnwell Regional
1385,BNO,43.59194444,-118.95555556,Burns Municipal
1405,BOI,43.56444444,-116.22277778,Boise Air Terminal
1409,BOK,42.07444444,-124.29,Brookings Airport
1423,BOS,42.36305556,-71.00638889,Logan International
1425,BOW,27.94333333,-81.78333333,Bartow Municipal
1440,BPT,29.95083333,-94.02055556,Jack Brooks Regional
1446,BQK,31.25916667,-81.46638889,Brunswick Golden Isles
1456,BQV,58.45555556,-135.88333333,Bartlett Cove Seaplane Base
1468,BRD,46.40416667,-94.13361111,Brainerd Lakes Regional
1472,BRG,37.11666667,-82.81666667,Whitesburg Municipal
1479,BRL,40.78333333,-91.12555556,Southeast Iowa Regional
1485,BRO,25.90694444,-97.42583333,Brownsville South Padre Island International
1505,BRW,71.28472222,-156.76861111,Wiley Post/Will Rogers Memorial
1507,BRY,37.81444444,-85.49972222,Samuels Field
1529,BSQ,31.36388889,-109.88305556,Bisbee Municipal
1538,BSW,60.42305556,-146.14583333,Boswell Bay Airport
1551,BTI,70.13388889,-143.58194444,Barter Island LRRS
1559,BTL,42.30638889,-85.25,W K Kellogg
1561,BTM,45.95472222,-112.4975,Bert Mooney
1563,BTP,40.77666667,-79.95111111,Butler County/K. W. Scholter Field
1565,BTR,30.53277778,-91.15,Baton Rouge Metropolitan/Ryan Field
1571,BTT,66.91388889,-151.52916667,Bettles Airport
1576,BTV,44.47194444,-73.15333333,Burlington International
1579,BTY,36.86111111,-116.78638889,Beatty Airport
1596,BUF,42.94055556,-78.73055556,Buffalo Niagara International
1602,BUM,38.28972222,-94.34027778,Butler Memorial
1612,BUR,34.20055556,-118.35861111,Bob Hope
1630,BVD,53.8325,-166.3025,Beaver Inlet Seaport
1636,BVO,36.76333333,-96.01111111,Bartlesville Municipal
1638,BVR,45.69222222,-85.56666667,Beaver Island
1639,BVX,35.72611111,-91.6475,Batesville Regional
1641,BVY,42.58416667,-70.91611111,Beverly Municipal
1646,BWD,31.79361111,-98.95638889,Brownwood Regional
1653,BWG,36.96444444,-86.41972222,Bowling Green-Warren County Regional
1659,BWI,39.17527778,-76.66833333,Baltimore/Washington International Thurgood Marshall
1663,BWM,46.18694444,-103.42805556,Bowman Municipal
1672,BXC,42.48472222,-71.54444444,Sheraton Inn Heliport
1678,BXS,33.25916667,-116.32083333,Borrego Valley
1681,BYA,64.07833333,-141.11333333,Boundary Airport
1685,RKH,34.98777778,-81.05722222,Rock Hill/York County/Bryant Field
1687,BYG,44.38111111,-106.72166667,Johnson County
1690,BYH,35.96444444,-89.94388889,Arkansas International
1692,BYI,42.5425,-113.77166667,Burley Municipal
1695,MI5,45.16583333,-84.92416667,Boyne Mountain
1705,BYW,48.57888889,-122.82638889,Blakely Island Airport
1717,BZN,45.7775,-111.15194444,Bozeman Yellowstone International
1724,BZT,28.98222222,-95.57972222,Eagle Air Park
1732,C01,34.21361111,-119.09444444,Camarillo Airport
1734,C02,35.32472222,-118.99611111,Bakersfield Municipal
1750,CAD,44.27527778,-85.41888889,Wexford County
1753,CAE,33.93888889,-81.11944444,Columbia Metropolitan
1766,CAK,40.915,-81.44361111,Akron-Canton Regional
1778,CAR,46.87166667,-68.01805556,Caribou Municipal
1793,CBA,57.73777778,-135.12555556,Corner Bay Airport
1800,CBE,39.61555556,-78.76083333,Greater Cumberland Regional
1802,CBF,41.26,-95.75861111,Council Bluffs Municipal
1806,CBK,39.40388889,-101.04666667,Murray
1810,CBM,33.64527778,-88.44583333,Columbus AFB
1849,CCR,37.98972222,-122.05694444,Buchanan Field
1864,CCY,43.0725,-92.61083333,Northeast Iowa Regional
1869,CDB,55.20527778,-162.72444444,Cold Bay Airport
1871,CDC,37.70083333,-113.09888889,Cedar City Regional
1879,CDH,33.62277778,-92.76333333,Harrell Field
1883,CDL,65.90777778,-161.92638889,Candle 2
1885,CDN,34.28361111,-80.56472222,Woodward Field
1887,CDR,42.8375,-103.09527778,Chadron Municipal
1890,CDV,60.49166667,-145.4775,Merle K Mudhole Smith
1892,CDW,40.87527778,-74.28138889,Essex County
1894,CEA,37.64861111,-97.25055556,Cessna Aircraft Field
1897,CEC,41.78027778,-124.23666667,Jack McNamara Field
1901,CEF,42.19388889,-72.53472222,Westover ARB Metropolitan
1914,CEM,65.57388889,-144.78083333,Central Airport
1934,CEU,34.67222222,-82.88583333,Oconee County Regional
1937,CEV,39.69805556,-85.13111111,Mettel Field
1939,CEW,30.77888889,-86.52222222,Bob Sikes
1941,CEX,65.05194444,-146.0475,Chena Hot Springs Airport
1943,CEY,36.66444444,-88.37277778,Kyle-Oakley Field
1945,CEZ,37.30305556,-108.62805556,Cortez Municipal
1946,CFA,58.21666667,-157.5,Coffee Point Airport
1963,CFT,32.95694444,-109.21111111,Greenlee County
1970,CFV,37.09388889,-95.57194444,Coffeyville Municipal
1971,CGA,55.47916667,-133.14611111,Craig Seaplane Base
1977,CGE,38.53944444,-76.03027778,Cambridge-Dorchester
1979,CGF,41.565,-81.48638889,Cuyahoga County
1983,CGI,37.22527778,-89.57083333,Cape Girardeau Regional
2000,CGS,38.98055556,-76.92222222,College Park Airport
2002,CGX,41.85888889,-87.60833333,Meigs Field
2006,CGZ,32.955,-111.76694444,Casa Grande Municipal
2008,CHA,35.03527778,-85.20361111,Lovell Field
2012,CHD,33.26916667,-111.81111111,Chandler Municipal
2019,CHI,41.87388889,-87.75555556,Chicago Metropolitan Area
2022,CHL,44.52361111,-114.21805556,Challis Airport
2026,CHO,38.13861111,-78.45277778,Charlottesville Albemarle
2028,CHP,65.48583333,-144.61166667,Circle Hot Springs Airport
2033,CHS,32.89861111,-80.04055556,Charleston AFB/International
2036,CHU,61.57916667,-159.21555556,Chuathbaluk Airport
2043,CHZ,42.57944444,-121.87888889,Chiloquin State
2046,CIB,33.405,-118.41583333,Catalina
2048,CIC,39.79527778,-121.85833333,Chico Municipal
2051,CID,41.88472222,-91.71083333,The Eastern Iowa
2053,CIG,40.49527778,-107.52166667,Craig-Moffat
2059,CIK,66.645,-143.74,Chalkyitsik Airport
2062,CIL,64.89666667,-163.70361111,Council Airport
2065,CIN,42.04666667,-94.78861111,Arthur N Neu
2070,CIR,37.06416667,-89.21944444,Cairo Regional
2073,CIU,46.25083333,-84.4725,Chippewa County International
2074,CIV,55.24777778,-132.32361111,Chomley Airport
2087,CJI,60.50277778,-147.94027778,Crafton Island Airport
2094,CJW,39.38722222,-97.15722222,Clay Center Municipal
2096,CKB,39.29666667,-80.22805556,North Central West Virginia
2098,CKD,61.86777778,-158.135,Crooked Creek Airport
2099,CKE,38.93472222,-122.62222222,Pearce Field
2102,CKM,34.29972222,-90.51222222,Fletcher Field
2107,CKU,60.54388889,-145.72666667,Cordova Municipal
2109,CKV,36.62194444,-87.415,Outlaw Field
2112,CKX,64.06666667,-141.95138889,Chicken Airport
2122,CLD,33.12833333,-117.28,McClellan-Palomar
2125,CLE,41.40944444,-81.85472222,Cleveland-Hopkins International
2126,CLF,64.30166667,-149.11777778,Clear Mews
2128,CLG,36.16222222,-120.29472222,New Coalinga Municipal
2132,CLI,44.61333333,-88.73083333,Clintonville Municipal
2139,CLK,35.53833333,-98.93277778,Clinton Regional
2141,CLL,30.58861111,-96.36388889,Easterwood Field
2143,CLM,48.12027778,-123.49972222,William R. Fairchild International
2148,CLP,58.83361111,-158.52944444,Clarks Point Airport
2151,CLR,33.13138889,-115.52138889,Cliff Hatfield Memorial
2154,CLS,46.67694444,-122.98277778,Chehalis Centralia
2157,CLT,35.21361111,-80.94916667,Charlotte Douglas International
2159,CLU,39.26194444,-85.89638889,Columbus Municipal
2181,CMH,39.99694444,-82.89222222,Port Columbus International
2183,CMI,40.03888889,-88.27777778,University of Illinois/Willard
2203,CMX,47.16833333,-88.48916667,Houghton County Memorial
2215,CNE,38.42861111,-105.10694444,Fremont County
2218,CNK,39.54916667,-97.65222222,Blosser Municipal
2221,CNM,32.3375,-104.26333333,Cavern City Air Terminal
2223,CNO,33.97472222,-117.63638889,Chino Airport
2231,CNW,31.63777778,-97.07416667,TSTC Waco
2235,CNY,38.755,-109.75472222,Canyonlands Field
2237,CO3,36.68166667,-121.76166667,Marina Municipal
2240,COA,38.03055556,-120.41444444,Columbia Airport
2244,COD,44.52027778,-109.02388889,Yellowstone Regional
2246,COE,47.77444444,-116.81944444,Coeur d'Alene - Pappy Boyington Field
2250,COF,28.235,-80.61,Patrick AFB
2260,COM,31.84111111,-99.40361111,Coleman Municipal
2262,CON,43.20277778,-71.50222222,Concord Municipal
2268,COS,38.80583333,-104.70083333,City of Colorado Springs Municipal
2274,COT,28.45583333,-99.21722222,Cotulla-La Salle County
2276,COU,38.81805556,-92.21972222,Columbia Regional
2295,CPR,42.90583333,-106.46361111,Casper/Natrona County International
2296,CPS,38.57138889,-90.15722222,Bi-State Parks
2310,CQL,39.38888889,-107.16,Glen-Aspen
2313,HCW,34.71277778,-79.95694444,Cheraw Municipal/Lynch Bellinger Field
2322,CRE,33.81166667,-78.72388889,Grand Strand
2324,CRG,30.33638889,-81.51444444,Jacksonville Executive at Craig
2337,CRP,27.77111111,-97.50111111,Corpus Christi International
2343,CRS,32.02805556,-96.40055556,C David Campbell Field-Corsicana Municipal
2353,CRW,38.37583333,-81.59305556,Yeager
2354,CRX,34.915,-88.60361111,Roscoe Turner
2357,CSE,38.85194444,-106.93277778,Buckhorn Ranch
2360,CSG,32.51638889,-84.93888889,Columbus Airport
2365,CSM,35.33972222,-99.20055556,Clinton Sherman
2367,CSN,39.19222222,-119.7325,Carson
2368,CSP,58.19916667,-136.63888889,Cape Spencer C.G. Helipad
2375,CSV,35.95138889,-85.085,Crossville Memorial-Whitson Field
2379,CTB,48.60833333,-112.37611111,Cut Bank International
2385,CTH,39.97888889,-75.86555556,Chester County G. O. Carlson
2392,CTO,40.915,-72.79194444,Calverton Executive Airpark
2399,CTW,34.73,-112.03527778,Cottonwood Airport
2401,CTX,42.59277778,-76.215,Cortland County Chase Field
2403,CTY,29.63555556,-83.10472222,Cross City Airport
2405,CUB,33.97055556,-80.99527778,Jim Hamilton L. B. Owens
2426,CUW,57.94166667,-134.75,Cube Cove Airport
2431,CVA,40.48333333,-80.21666667,Civic Arena H/P
2435,CVG,39.04888889,-84.66777778,Cincinnati/Northern Kentucky International
2445,CVN,34.42666667,-103.0775,Clovis Municipal
2447,CVO,44.49722222,-123.28944444,Corvallis Municipal
2452,CVS,34.3825,-103.3225,Cannon AFB
2456,CVX,45.30472222,-85.27527778,Charlevoix Municipal
2458,CWA,44.7775,-89.66666667,Central Wisconsin
2463,CWI,41.83083333,-90.32888889,Clinton Municipal
2468,CWS,48.49,-122.83222222,Center Island Airport
2477,CXC,61.58333333,-144.42972222,Chitina Airport
2479,CXF,67.25222222,-150.20388889,Coldfoot Airport
2488,CXL,32.6675,-115.5175,Calexico International
2491,CXO,30.35333333,-95.415,Lone Star Executive
2508,CYF,60.13666667,-164.27916667,Chefornak Airport
2513,CYM,57.51527778,-134.94444444,Chatham Airport
2519,CYS,41.15555556,-104.81055556,Cheyenne Regional/Jerry Olson Field
2521,CYT,60.08194444,-142.49361111,Yakataga
2527,CZC,61.94111111,-145.29416667,Copper Center 2
2531,CZF,61.78027778,-166.03861111,Cape Romanzof LRRS
2539,CZN,62.07111111,-142.04833333,Chisana Airport
2541,CZO,62.56222222,-144.6725,Chistochina Airport
2542,CZP,55.965,-133.79333333,Cape Pole Airport
2556,DAB,29.18,-81.05805556,Daytona Beach International
2567,DAG,34.85361111,-116.78666667,Barstow/Daggett
2571,DAL,32.84722222,-96.85166667,Dallas Love Field
2575,DAN,36.57277778,-79.33611111,Danville Regional
2588,DAY,39.90222222,-84.21944444,James M Cox/Dayton International
2593,DBN,32.56472222,-82.985,W H Bud Barron
2597,DBQ,42.40194444,-90.70944444,Dubuque Regional
2607,DCA,38.85194444,-77.03777778,Ronald Reagan Washington National
2612,DCK,66.94333333,-156.90472222,Dahl Creek Airport
2615,DCU,34.65416667,-86.94527778,Pryor Field Regional
2617,DDC,37.76305556,-99.96555556,Dodge City Regional
2626,DEC,39.83444444,-88.86555556,Decatur Airport
2628,DEH,43.27555556,-91.73944444,Decorah Municipal
2635,DEN,39.86166667,-104.67305556,Denver International
2641,DET,42.40944444,-83.01027778,Coleman A. Young Municipal
2644,DFI,41.3375,-84.42888889,Defiance Memorial
2648,DFW,32.89722222,-97.03777778,Dallas/Fort Worth International
2649,DGB,58.13333333,-152.55,Danger Bay Airport
2656,DGW,42.79722222,-105.38583333,Converse County
2663,DHN,31.32111111,-85.44944444,Dothan Regional
2665,DHT,36.0225,-102.5475,Dalhart Municipal
2675,DIK,46.79722222,-102.80194444,Dickinson - Theodore Roosevelt Regional
2681,DIO,65.75861111,-168.95305556,Diomede Heliport
2700,DJN,64.05055556,-145.71722222,Delta Junction Airport
2707,DKK,42.49388889,-79.27111111,Chautauqua County/Dunkirk
2717,DLF,29.35944444,-100.77805556,Laughlin AFB
2719,DLG,59.04472222,-158.50555556,Dillingham Airport
2722,DLH,46.84194444,-92.19361111,Duluth International
2725,DLL,34.44916667,-79.36861111,Dillon County
2728,DLO,55.12222222,-132.05,Dolomi Airport
2731,DLS,45.61944444,-121.16833333,Columbia Gorge Regional/The Dalles Municipal
2736,DMA,32.16638889,-110.88305556,Davis Monthan AFB
2739,DMN,32.2625,-107.71888889,Deming Municipal
2741,DMO,38.7075,-93.17583333,Sedalia Regional
2749,DNC,56.75694444,-133.22166667,Duncan Canal Airport
2752,DNE,33.07888889,-96.73833333,Dallas North
2756,DNL,33.46666667,-82.03944444,Daniel Field
2758,DNN,34.72305556,-84.87027778,Dalton Municipal
2767,DNV,40.19972222,-87.59555556,Vermilion Regional
2773,DOF,55.23333333,-132.21666667,Dora Bay Airport
2797,DOV,39.12944444,-75.46583333,Dover AFB
2798,DPA,41.91555556,-88.24666667,Du Page County
2800,DPG,40.19944444,-112.9375,Michael AAF
2808,AA8,70.1375,-147.03055556,Badami
2812,DQC,27.81333333,-80.49555556,Sebastian Municipal
2814,DQD,42.64861111,-111.58194444,Allen H Tigert
2816,DQE,32.845,-115.26861111,Holtville Airport
2819,DQG,36.53666667,-86.92111111,Springfield Robertson County
2821,DQH,70.34416667,-150.94472222,Alpine Airstrip
2824,DQI,39.17888889,-121.99333333,Colusa County
2826,DQJ,47.39138889,-102.77194444,Weydahl Field
2829,DQK,44.05583333,-75.71944444,Wheeler-Sack AAF
2831,DQL,61.18666667,-149.96527778,Lake Hood Strip
2833,DQN,29.05555556,-80.94888889,New Smyrna Beach Municipal
2834,DQO,32.41083333,-91.49861111,Delhi Municipal
2835,DQP,38.23638889,-89.35861111,Marshall Field
2837,DQQ,40.86972222,-100.00416667,Cozad Municipal
2842,DQS,36.25638889,-113.23083333,Grand Canyon Bar Ten Airstrip
2845,DQU,55.77888889,-131.60138889,Neets Bay
2846,DQV,59.1025,-135.38222222,Glacier Point
2847,DQW,35.57222222,-113.2925,Hualapai
2848,DQX,60.07472222,-143.08666667,Tsui River Airport
2851,DQY,28.4675,-80.56666667,Cape Canaveral AFS Skid Strip
2852,DQZ,58.91166667,-161.71388889,Platinum Mine
2854,DRA,36.61944444,-116.03277778,Desert Rock
2858,DRE,46.00944444,-83.74388889,Drummond Island Airport
2860,DRF,60.58888889,-152.16194444,Drift River Airport
2863,DRG,66.06916667,-162.76694444,Deering Airport
2868,DRO,37.15138889,-107.75388889,Durango La Plata County
2872,DRT,29.37416667,-100.92722222,Del Rio International
2874,DRU,46.62083333,-113.205,Drummond Airport
2883,DSI,30.4,-86.47138889,Destin-Ft. Walton Beach
2888,DSM,41.53388889,-93.66305556,Des Moines International
2892,DTA,39.38361111,-112.50222222,Delta Municipal
2894,DTH,36.46055556,-116.87972222,Furnace Creek
2896,DTL,46.82527778,-95.88555556,Detroit Lakes-Wething Field
2900,DTN,32.54027778,-93.745,Shreveport Downtown
2902,DTO,33.20222222,-97.19805556,Denton Municipal
2903,DTR,48.51,-122.80305556,Decatur
2904,DTT,42.31277778,-83.17861111,Detroit Metropolitan Area
2906,DTW,42.2125,-83.35333333,Detroit Metro Wayne County
2907,DUA,33.93333333,-96.4,Eaker Field
2911,DUC,34.47138889,-97.95972222,Halliburton Field
2917,DUF,36.25361111,-75.78861111,Pine Island
2920,DUG,31.46888889,-109.60388889,Bisbee Douglas International
2922,DUJ,41.17833333,-78.89861111,DuBois Regional
2931,DUT,53.89888889,-166.545,Unalaska Airport
2936,DVL,48.11666667,-98.91,Devils Lake Regional
2938,DVN,41.61027778,-90.58833333,Davenport Municipal
2942,DVT,33.68833333,-112.0825,Phoenix - Deer Valley
2944,DWA,38.57944444,-121.85694444,Yolo County
2946,DWH,30.06194444,-95.55277778,David Wayne Hooks Memorial
2950,DXR,41.37166667,-73.48222222,Danbury Municipal
2959,DYS,32.41833333,-99.85666667,Dyess AFB
2967,EAA,64.77805556,-141.14972222,Eagle Airport
2968,EAG,67.56222222,-162.97527778,Eagle Creek Strip
2972,EAN,42.05555556,-104.92861111,Phifer Airfield
2974,EAR,40.72694444,-99.00666667,Kearney Regional
2978,EAT,47.39805556,-120.20583333,Pangborn Memorial
2981,EAU,44.86583333,-91.48416667,Chippewa Valley Regional
2996,ECA,44.31277778,-83.42222222,Iosco County
2999,ECG,36.26055556,-76.17444444,Elizabeth City CGAS/Regional
3003,ECP,30.35833333,-85.79555556,Northwest Florida Beaches International
3006,ECS,43.88416667,-104.31444444,Mondell Field
3007,ECU,29.94694444,-100.17388889,Edwards County
3008,EDA,55.93638889,-133.65555556,Edna Bay Airport
3010,EDE,36.02777778,-76.56722222,Northeastern Regional
3013,EDF,61.25138889,-149.80638889,Elmendorf AFB
3019,EDW,34.91805556,-117.87916667,Edwards AFB
3021,EED,34.76638889,-114.62333333,Needles Airport
3023,EEK,60.21361111,-162.04388889,Eek Airport
3025,EEN,42.89833333,-72.27083333,Dillant Hopkins
3026,EFB,58.0,-135.73333333,Eight Fathom Bight Airport
3028,EFD,29.60722222,-95.15861111,Ellington
3031,EFK,44.88888889,-72.22916667,Newport State
3038,EGA,60.28333333,-148.08333333,Chenega Airport
3044,EGE,39.64277778,-106.91583333,Eagle County Regional
3047,EGI,30.64861111,-86.52194444,Duke Field
3051,EGP,28.70222222,-100.48055556,Eagle Pass Municipal
3054,EGT,37.32361111,-97.38833333,Wellington Municipal
3056,EGV,45.93222222,-89.26833333,Eagle River Union
3058,EGX,58.18555556,-157.37555556,Egegik Airport
3060,EHM,58.64638889,-162.06277778,Cape Newenham LRRS
3061,EHR,57.41666667,-152.71666667,Eagle Harbor Airport
3063,EHT,41.75333333,-72.62833333,Rentschler Heliport
3068,EIL,64.66555556,-147.10138889,Eielson AFB
3081,EKA,40.80333333,-124.11277778,Murray Field
3086,EKI,41.71944444,-86.00333333,Elkhart Municipal
3088,EKN,38.88944444,-79.85722222,Elkins-Randolph County-Jennings Randolph Field
3091,EKO,40.825,-115.79138889,Elko Regional
3093,EKX,37.68611111,-85.925,Addington Field
3095,EKY,33.3125,-86.92638889,Bessemer Airport
3097,ELA,29.60055556,-96.32194444,Eagle Lake Airport
3105,ELD,33.22083333,-92.81333333,South Arkansas Regional at Goodwin Field
3114,ELI,64.615,-162.27055556,Elim Airport
3118,ELM,42.15972222,-76.89194444,Elmira/Corning Regional
3120,ELN,47.03305556,-120.53055556,Bowers Field
3123,ELP,31.80722222,-106.37638889,El Paso International
3132,ELV,58.2,-136.31666667,Elfin Cove Seaplane Base
3133,ELW,60.89333333,-146.70833333,Ellamar Seaplane Base
3135,ELY,39.29972222,-114.84194444,Ely Airport/Yelland Field
3142,EMK,62.78611111,-164.49083333,Emmonak Airport
3144,EMM,41.82416667,-110.55694444,Kemmerer Municipal
3148,EMP,38.33055556,-96.19,Emporia Municipal
3150,EMT,34.08611111,-118.03472222,El Monte Airport
3152,ENA,60.57333333,-151.24472222,Kenai Municipal
3158,END,36.33916667,-97.91638889,Vance AFB
3160,ENL,38.515,-89.09111111,Centralia Municipal
3162,ENN,64.54722222,-149.07388889,Nenana Municipal
3174,ENV,40.71861111,-114.02861111,Wendover Airport
3176,ENW,42.59555556,-87.92777778,Kenosha Regional
3181,EOK,40.46,-91.42861111,Keokuk Municipal
3183,EPH,47.30805556,-119.51694444,Ephrata Municipal
3206,ERI,42.08305556,-80.17388889,Erie International/Tom Ridge Field
3217,ERV,29.97666667,-99.08555556,Kerrville Municipal/Louis Schreiner Field
3227,ESC,45.72277778,-87.09361111,Delta County
3229,ESD,48.70833333,-122.91055556,Orcas Island
3235,ESF,31.395,-92.29583333,Esler Regional
3240,ESN,38.80416667,-76.06888889,Easton/Newnam Field
3242,ESP,41.03583333,-75.16055556,Stroudsburg Pocono
3250,ETN,32.415,-98.80972222,Eastland Municipal
3252,ETS,31.29972222,-85.89972222,Enterprise Municipal
3260,EUE,39.60361111,-116.00361111,Eureka Airport
3262,EUF,31.95138889,-85.12888889,Weedon Field
3264,EUG,44.12444444,-123.21194444,Mahlon Sweet Field
3271,EVC,64.04194444,-148.86305556,Eva Creek Airport
3277,EVM,47.42444444,-92.49722222,Eveleth Virginia Municipal
3284,EVV,38.04083333,-87.52861111,Evansville Regional
3286,EVW,41.27472222,-111.03472222,Evanston-Uinta County Burns Field
3291,EWB,41.67666667,-70.95777778,New Bedford Regional
3294,EWK,38.05694444,-97.27527778,Newton City County
3300,EWN,35.07277778,-77.04305556,Coastal Carolina Regional
3302,EWR,40.6925,-74.16861111,Newark Liberty International
3304,EXI,58.42083333,-135.44722222,Excursion Inlet Seaplane Base
3316,EYW,24.55611111,-81.75944444,Key West International
3324,F70,33.57416667,-117.12833333,French Valley
3331,FAI,64.815,-147.85638889,Fairbanks International
3334,FAK,57.51666667,-135.21666667,False Island Airport
3335,FAL,26.58333333,-99.13333333,Falcon State Park
3337,FAM,37.76111111,-90.42861111,Farmington Regional
3345,FAR,46.92055556,-96.81583333,Hector International
3350,FAT,36.77666667,-119.71888889,Fresno Yosemite International
3351,FAU,60.89611111,-147.44666667,Fairmount Island Airport
3355,FAY,34.99111111,-78.88027778,Fayetteville Regional/Grannis Field
3357,FBG,35.13194444,-78.93611111,Simmons AAF
3359,FBK,64.8375,-147.61444444,Ladd AAF
3367,FBR,41.39333333,-110.40583333,Fort Bridger Airport
3368,FBS,48.5375,-123.00833333,Friday Harbor Seaplane Base
3371,FCA,48.31055556,-114.25611111,Glacier Park International
3373,FCH,36.73222222,-119.82027778,Fresno Chandler Executive
3375,FCM,44.8275,-93.45861111,Flying Cloud
3380,FCS,38.67972222,-104.76083333,Butts AAF
3390,FDK,39.4175,-77.37444444,Frederick Municipal
3392,FDR,34.35222222,-98.98388889,Frederick Regional
3396,FDY,41.01194444,-83.66861111,Findlay Airport
3402,FEP,42.24611111,-89.58194444,Albertus
3404,FET,41.44972222,-96.52111111,Fremont Municipal
3405,FEW,41.13333333,-104.86722222,Francis E. Warren AFB Heliport
3411,FFM,46.28444444,-96.15666667,Fergus Falls Municipal-Einar Mickelson Field
3412,FFO,39.82611111,-84.04833333,Wright-Patterson AFB
3415,FFT,38.18166667,-84.90666667,Capital City
3422,FHU,31.58833333,-110.34444444,Sierra Vista Municipal-Libby AAF
3423,FIC,55.77777778,-131.5375,Fire Cove Airport
3424,FID,41.25138889,-72.03166667,Elizabeth Field
3430,FIL,38.95805556,-112.36305556,Fillmore Municipal
3445,FKL,41.3775,-79.86055556,Venango Regional
3448,FL1,28.22805556,-82.15583333,Zephyrhills Municipal
3450,FL2,27.96083333,-80.55833333,Valkaria Airport
3453,FL4,29.46583333,-81.20861111,Flagler County
3456,FL5,29.35583333,-82.47194444,Williston Municipal
3462,FLD,43.77111111,-88.48833333,Fond Du Lac County
3467,FLG,35.14027778,-111.66916667,Flagstaff Pulliam
3468,FLJ,60.51666667,-148.0,Falls Bay Airport
3472,FLL,26.07166667,-80.14972222,Fort Lauderdale-Hollywood International
3477,FLO,34.18527778,-79.72388889,Florence Regional
3483,FLT,62.45277778,-157.98916667,Flat Airport
3484,FLU,40.77916667,-73.83277778,Flushing
3486,FLV,39.36833333,-94.91472222,Sherman AAF
3491,FLX,39.49916667,-118.74888889,Fallon Municipal
3497,FMH,41.65916667,-70.52277778,Cape Cod CGAS
3501,FMN,36.74138889,-108.23,Four Corners Regional
3507,FMS,40.65916667,-91.32777778,Fort Madison Municipal
3509,FMY,26.58666667,-81.86333333,Page Field
3521,FNL,40.45194444,-105.01138889,Fort Collins-Loveland Municipal
3522,FNR,58.25,-134.9,Funter Bay
3524,FNT,42.96555556,-83.74361111,Bishop International
3526,FOB,39.47444444,-123.79555556,Fort Bragg Airport
3529,FOD,42.55111111,-94.19194444,Fort Dodge Regional
3531,FOE,38.95083333,-95.66361111,Forbes Field
3535,FOK,40.84361111,-72.63166667,Francis S. Gabreski
3542,FPR,27.4975,-80.37277778,St. Lucie County International
3544,FPY,30.06916667,-83.58055556,Perry-Foley
3545,FQA,55.60611111,-131.48333333,Patching Lake Airport
3546,FQB,33.23972222,-119.45805556,San Nicolas Island NOLF
3547,FQC,57.80555556,-152.38055556,Lilly Lake
3548,FQD,58.235,-155.10361111,Trident Volcano
3549,FQE,58.31333333,-134.10416667,Annex Creek Airport
3550,FQF,58.35277778,-133.99138889,Davidson Creek Airport
3553,FQG,58.13444444,-133.72944444,Snettisham Airport
3555,FQH,61.16833333,-150.16055556,Fire Island Airport
3556,FQI,38.23444444,-84.43472222,Georgetown Scott County - Marshall Field
3557,FQJ,58.09861111,-134.76,Greens Creek Airport
3558,FQK,58.21472222,-136.15638889,Gull Cove Airport
3559,FQL,38.665,-88.45305556,Flora Municipal
3560,FQN,55.56222222,-132.63055556,Karta Lake Airport
3561,FQO,55.56666667,-131.05638889,Manzanita Lake Airport
3562,FQP,55.83444444,-131.48472222,Shrimp Bay Airport
3563,FQQ,59.14666667,-138.56361111,Dry Bay Airport
3564,FQR,55.24361111,-132.57333333,Josephine Lake Airport
3565,FQU,48.28388889,-115.49027778,Libby Airport
3566,FQV,53.81444444,-167.11944444,Volcano Bay Airport
3567,FQW,53.36666667,-167.88333333,Fort Glenn Airport
3568,FQX,55.21027778,-132.13194444,Babe Islands Airport
3569,FQY,55.92638889,-133.25277778,Kahli Cove Airport
3576,FRD,48.52194444,-123.02444444,Friday Harbor Airport
3580,FRG,40.72888889,-73.41333333,Republic
3584,FRM,43.64388889,-94.41555556,Fairmont Municipal
3587,FRP,57.85,-134.98333333,Fresh Water Bay Airport
3589,FRR,38.9175,-78.25333333,Front Royal-Warren County
3597,FRY,43.99111111,-70.94777778,Eastern Slopes Regional
3601,FSD,43.58194444,-96.74194444,Joe Foss Field
3603,FSI,34.64972222,-98.40222222,Henry Post AAF
3605,FSK,37.79833333,-94.76944444,Fort Scott Municipal
3606,FSM,35.33666667,-94.3675,Fort Smith Regional
3611,FST,30.91527778,-102.91277778,Fort Stockton Pecos County
3618,FTG,39.78416667,-104.5375,Front Range
3620,FTK,37.90722222,-85.97166667,Godman AAF
3622,FTL,61.86833333,-162.06805556,Fortuna Ledge Airport
3632,FTW,32.81944444,-97.36166667,Fort Worth Meacham International
3633,FTY,33.77916667,-84.52138889,Fulton County Airport-Brown Field
3643,FUL,33.87194444,-117.97972222,Fullerton Municipal
3648,FVA,61.11638889,-155.31138889,Osprey Lodge Airport
3654,FVD,30.58555556,-100.64861111,Sonora Municipal
3655,FVE,33.35416667,-117.25083333,Fallbrook Community Airpark
3659,FVG,33.97055556,-112.795,Wickenburg Municipal
3662,FVH,46.79416667,-119.08,Othello Municipal
3663,FVI,32.82583333,-91.18777778,Byerley
3666,FVN,48.15333333,-104.50416667,Big Sky Field
3667,FVO,45.24722222,-122.77,Aurora State
3669,FVP,39.94388889,-120.94527778,Gansner Field
3671,FVQ,62.07194444,-158.20416667,Donlin Creek Mine Airport
3673,FVS,43.83388889,-111.805,Rexburg-Madison County
3676,FVV,35.72833333,-118.41972222,Kern Valley
3677,FVW,65.28333333,-153.0,Golden Creek Mine Airport
3678,FVX,54.91666667,-132.91666667,Grace Harbor Airport
3679,FVY,56.08333333,-131.96666667,Unuk River Airport
3680,FVZ,70.00388889,-153.0775,Inigok
3684,FWA,40.97833333,-85.19527778,Fort Wayne International
3687,FWH,32.76916667,-97.44166667,Fort Worth NAS JRB/Carswell Field
3690,FWL,62.50916667,-153.89027778,Farewell Airport
3691,FWS,32.56527778,-97.30805556,Fort Worth Spinks
3693,FXE,26.19722222,-80.17083333,Fort Lauderdale Executive
3695,A35,70.17277778,-146.83611111,Bullen Point AFS
3698,FXR,40.27333333,-86.56222222,Frankfort Municipal
3699,FXY,43.23472222,-93.62416667,Forest City Municipal
3704,FYU,66.5725,-145.24638889,Fort Yukon Airport
3707,FYV,36.005,-94.17,Drake Field
3713,GA1,34.68861111,-85.29027778,Barwick Lafayette
3715,GA2,33.63166667,-85.15222222,West Georgia Regional - O V Gray Field
3716,GA3,33.31166667,-84.76972222,Newnan Coweta County
3719,GAD,33.97277778,-86.08916667,Northeast Alabama Regional
3722,GAI,39.16833333,-77.16611111,Montgomery County Airpark
3726,GAL,64.73611111,-156.9375,Edward G. Pitka Sr.
3728,GAM,63.76666667,-171.73277778,Gambell Airport
3750,GBD,38.34416667,-98.85916667,Great Bend Municipal
3756,GBG,40.93805556,-90.43111111,Galesburg Municipal
3758,GBH,68.47972222,-149.49,Galbraith Lake Airport
3765,GBR,42.18416667,-73.40333333,Walter J. Koladza
3770,GCC,44.34888889,-105.53944444,Gillette Campbell County
3777,GCK,37.9275,-100.72444444,Garden City Regional
3781,GCN,35.95222222,-112.14694444,Grand Canyon National Park
3782,GCY,36.19138889,-82.81666667,Municipal
3785,GDC,34.75833333,-82.37638889,Donaldson Field
3788,GDH,59.74694444,-158.87472222,Golden Horn Lodge Seaplane Base
3794,GDM,42.55,-72.01611111,Gardner Municipal
3805,GDV,47.13861111,-104.80722222,Dawson Community
3807,GDW,43.97055556,-84.475,Gladwin Zettel Memorial
3816,GED,38.68916667,-75.35888889,Sussex County
3818,GEG,47.61916667,-117.53527778,Spokane International
3819,GEK,62.97555556,-156.51333333,Ganes Creek Airport
3838,GEY,44.51805556,-108.08305556,South Big Horn County
3840,GEZ,39.58305556,-85.80472222,Shelbyville Municipal
3842,GFA,47.50472222,-111.18722222,Malmstrom AFB Heliport
3843,GFB,59.05,-160.28333333,Togiak Fish Airport
3847,GFK,47.94722222,-97.17388889,Grand Forks International
3849,GFL,43.34111111,-73.61027778,Floyd Bennett Memorial
3862,GGE,33.31138889,-79.32027778,Georgetown County
3864,GGG,32.38388889,-94.71138889,East Texas Regional
3870,GGW,48.2125,-106.61472222,Wokal Field/Glasgow International
3897,GJT,39.1225,-108.52666667,Grand Junction Regional
3902,GKN,62.155,-145.45444444,Gulkana Airport
3908,GLD,39.37055556,-101.69888889,Renner Field
3914,GLH,33.48277778,-90.98555556,Greenville Mid Delta
3926,GLR,45.01305556,-84.70333333,Gaylord Regional
3928,GLS,29.26527778,-94.86055556,Scholes International at Galveston
3932,GLV,64.55055556,-163.00722222,Golovin Airport
3933,GLW,37.03166667,-85.95361111,Glasgow Municipal
3940,GMT,65.40222222,-161.28138889,Granite Mountain AS
3942,GMU,34.84805556,-82.35,Greenville Downtown
3953,GNU,59.11777778,-161.57361111,Goodnews
3955,GNV,29.69,-82.27166667,Gainesville Regional
3969,GOL,42.41527778,-124.425,Gold Beach Municipal
3973,GON,41.33,-72.04527778,Groton-New London
3995,GPM,32.69888889,-97.04694444,Grand Prairie Municipal
3998,GPT,30.40722222,-89.07,Gulfport-Biloxi International
4001,GPZ,47.21027778,-93.51,Grand Rapids/Itasca County-Gordon Newstrom Field
4003,GQQ,40.73611111,-82.75277778,Horning
4009,GRB,44.48472222,-88.12972222,Austin Straubel International
4011,GRD,34.24861111,-82.15916667,Greenwood County
4013,GRF,47.07916667,-122.58083333,Gray AAF
4015,GRI,40.9675,-98.30972222,Central Nebraska Regional
4020,GRK,31.06722222,-97.82888889,Robert Gray AAF
4029,GRR,42.88083333,-85.52277778,Gerald R. Ford International
4042,GSB,35.33944444,-77.96055556,Seymour Johnson AFB
4046,GSH,41.52638889,-85.79416667,Goshen Municipal
4048,GSO,36.10138889,-79.94111111,Piedmont Triad International
4051,GSP,34.89555556,-82.21888889,Greenville-Spartanburg International
4053,GST,58.42527778,-135.7075,Gustavus Airport
4061,GTF,47.48277778,-111.37055556,Great Falls International
4067,GTR,33.44833333,-88.59138889,Golden Triangle Regional
4068,GTU,30.67888889,-97.67944444,Georgetown Municipal
4078,GUC,38.53388889,-106.93305556,Gunnison-Crested Butte Regional
4090,GUP,35.51111111,-108.78944444,Gallup Municipal
4097,GUS,40.64805556,-86.15222222,Grissom ARB
4102,GUY,36.685,-101.50777778,Guymon Municipal
4107,GVE,38.15611111,-78.16583333,Gordonsville Municipal
4109,GVL,34.2725,-83.83027778,Lee Gilmer Memorial
4110,GVQ,43.03166667,-78.16972222,Genesee County
4113,GVT,33.06777778,-96.06527778,Majors
4114,GVW,38.85083333,-94.55833333,Richards/Gebaur AFB
4127,GWO,33.49416667,-90.08472222,Greenwood/Leflore
4130,GWR,46.21833333,-97.64333333,Gwinner-Roger Melroe Field
4132,GWS,39.50611111,-107.30916667,Glenwood Springs Municipal
4158,GYR,33.42388889,-112.37472222,Phoenix Goodyear
4160,GYY,41.61638889,-87.41277778,Gary/Chicago International
4169,HAB,34.12916667,-87.99444444,Marion County
4174,HAE,36.21666667,-112.66666667,Havasupai Airport
4176,HAF,37.51333333,-122.50111111,Half Moon Bay Airport
4190,HAO,39.36388889,-84.52194444,Butler County Regional Hogan Field
4194,HAR,40.21722222,-76.85138889,Capital City
4203,HBC,57.41666667,-135.03333333,Hanus Bay Airport
4208,HBG,31.265,-89.25277778,Hattiesburg Bobby L. Chain Municipal
4209,HBH,57.4,-133.46666667,Hobart Bay Airport
4214,HBV,27.34944444,-98.73694444,Jim Hogg County
4215,HBY,57.38194444,-134.39527778,Hood Bay Airport
4216,HCA,32.30361111,-101.43388889,Howard County
4217,HCB,55.45,-131.28333333,Shoal Cove Airport
4219,HCR,62.18833333,-159.775,Holy Cross Airport
4220,HDA,57.21666667,-134.88333333,Hidden Falls Airport
4229,HDH,21.57944444,-158.19722222,Dillingham
4235,HDN,40.48111111,-107.21777778,Yampa Valley
4243,HED,55.80138889,-160.89916667,Herendeen Bay
4253,HES,45.82833333,-119.25916667,Hermiston Municipal
4258,HEZ,31.61361111,-91.29722222,Hardy-Anders Field Natchez-Adams County
4262,HFD,41.73666667,-72.64944444,Hartford Brainard
4265,HFF,35.03666667,-79.4975,Mackall AAF
4283,HGR,39.70861111,-77.72638889,Hagerstown Regional-Richard A. Henson Field
4288,HGZ,66.19166667,-155.66888889,Hogatza Airport
4292,HHH,32.22444444,-80.6975,Hilton Head Airport
4297,HHR,33.92277778,-118.33527778,Jack Northrop Field/Hawthorne Municipal
4300,KS3,39.87916667,-95.52527778,Hiawatha Municipal
4303,HIB,47.38666667,-92.83888889,Range Regional
4305,HIE,44.3675,-71.54583333,Mount Washington Regional
4307,HIF,41.12388889,-111.97305556,Hill AFB
4309,HII,34.57111111,-114.35833333,Lake Havasu City Airport
4313,HIK,21.31777778,-157.92027778,Joint Base Pearl Harbor-Hickam
4319,HIO,45.54083333,-122.95027778,Portland Hillsboro
4325,HKA,35.94055556,-89.83083333,Blytheville Municipal
4326,HKB,63.8675,-148.96888889,Healy River
4337,HKS,32.33472222,-90.2225,Hawkins Field
4341,HKY,35.74111111,-81.38944444,Hickory Regional
4350,HLG,40.175,-80.64638889,Wheeling Ohio County
4352,HLI,36.89333333,-121.41027778,Hollister Municipal
4353,HLM,42.79583333,-86.16194444,Park Township
4355,HLN,46.60694444,-111.98277778,Helena Regional
4369,HMN,32.85222222,-106.10916667,Holloman AFB
4372,HMS,58.29444444,-135.34722222,Homeshore Airport
4374,HMT,33.73388889,-117.0225,Hemet-Ryan
4379,HNC,35.23277778,-75.61777778,Billy Mitchell
4386,HNH,58.09611111,-135.40888889,Hoonah Airport
4388,HNL,21.31777778,-157.92027778,Honolulu International
4390,HNM,20.79555556,-156.01444444,Hana Airport
4393,HNS,59.24388889,-135.52361111,Haines Airport
4396,HOB,32.6875,-103.21722222,Lea County Regional
4408,HOL,62.91055556,-159.52777778,Holikachuk Airport
4410,HOM,59.64555556,-151.47666667,Homer Airport
4412,HON,44.38527778,-98.22861111,Huron Regional
4414,HOP,36.66861111,-87.49611111,Campbell AAF
4421,HOT,34.47805556,-93.09611111,Memorial Field
4423,HOU,29.64555556,-95.27888889,William P Hobby
4433,HPB,61.52388889,-166.14666667,Hooper Bay Airport
4437,HPN,41.06694444,-73.7075,Westchester County
4439,HPT,42.72361111,-93.22638889,Hampton Municipal
4441,HPV,22.20916667,-159.44555556,Princeville
4442,HQM,46.97111111,-123.93666667,Bowerman
4454,HRL,26.22722222,-97.65527778,Valley International
4456,HRO,36.26138889,-93.15472222,Boone County
4464,HSH,35.97277778,-115.13444444,Henderson Executive
4466,HSI,40.60527778,-98.42777778,Hastings Municipal
4469,HSL,65.69777778,-156.35138889,Huslia Airport
4471,HSP,37.95138889,-79.83388889,Ingalls Field
4474,HST,25.48861111,-80.38361111,Homestead ARB
4476,HSV,34.63722222,-86.775,Huntsville International-Carl T Jones Field
4484,HTH,38.545,-118.6325,Hawthorne Industrial
4489,HTO,40.95944444,-72.25166667,East Hampton Airport
4491,HTS,38.36694444,-82.55861111,Tri-State/Milton J. Ferguson Field
4495,HUA,34.67861111,-86.68472222,Redstone AAF
4502,HUF,39.45138889,-87.3075,Terre Haute International-Hulman Field
4515,HUL,46.12472222,-67.79222222,Houlton International
4517,HUM,29.56638889,-90.66055556,Houma Terrebonne
4521,HUS,66.03916667,-154.26472222,Hughes Airport
4523,HUT,38.06555556,-97.86055556,Hutchinson Municipal
4539,HVC,36.85694444,-87.455,Hopkinsville-Christian County
4541,HVN,41.26388889,-72.88694444,Tweed New Haven
4543,HVR,48.54305556,-109.76222222,Havre City-County
4545,HVS,34.40305556,-80.11916667,Hartsville Regional
4547,HWD,37.65888889,-122.12166667,Hayward Executive
4548,HWI,58.13333333,-134.75,Hawk Inlet Airport
4550,HYA,41.66944444,-70.28027778,Barnstable Municipal-Boardman/Polando Field
4552,HYG,55.20666667,-132.82666667,Hydaburg Seaplane Base
4553,HYL,55.48194444,-132.64444444,Hollis Seaplane Base
4556,HYR,46.02527778,-91.44305556,Sawyer County
4558,HYS,38.84222222,-99.27305556,Hays Regional
4565,HZL,40.98666667,-75.995,Hazleton Regional
4566,IA1,40.75166667,-95.41361111,Shenandoah Municipal
4569,IA2,42.43638889,-93.86888889,Webster City Municipal
4571,IA3,41.01083333,-95.25888889,Red Oak Municipal
4573,IAB,37.62305556,-97.2675,McConnell AFB
4575,IAD,38.9475,-77.46,Washington Dulles International
4578,IAG,43.1075,-78.94583333,Niagara Falls International
4581,IAH,29.98444444,-95.34138889,George Bush Intercontinental/Houston
4585,IAN,66.97583333,-160.43666667,Bob Baker Memorial
4605,ICT,37.65,-97.43305556,Wichita Dwight D Eisenhower National
4607,ICY,59.96888889,-141.66166667,Icy Bay Airport
4609,IDA,43.51361111,-112.07083333,Idaho Falls Regional
4612,IDI,40.63111111,-79.10166667,Indiana County
4616,IDP,37.15805556,-95.77888889,Independence Municipal
4637,IGG,59.32416667,-155.90166667,Igiugig Airport
4643,IGM,35.25944444,-113.93805556,Kingman Airport
4651,IGX,35.935,-79.06583333,Horace Williams
4654,II1,40.29361111,-88.1425,Rantoul National Aviation Center
4656,LOT,41.60805556,-88.09611111,Lewis University
4658,II3,41.93388889,-88.70555556,De Kalb Taylor Municipal
4659,II4,40.15861111,-89.335,Logan County
4663,IJX,39.77472222,-90.23833333,Jacksonville Municipal
4668,IKB,36.22361111,-81.09861111,Wilkes County
4672,IKK,41.07138889,-87.84638889,Greater Kankakee
4674,IKO,52.94166667,-168.84916667,Nikolski AS
4680,IKV,41.69111111,-93.56638889,Ankeny Regional
4684,ILE,31.08583333,-97.68638889,Skylark Field
4686,ILG,39.67861111,-75.60666667,New Castle
4688,ILI,59.75555556,-154.91777778,Iliamna Airport
4691,ILL,45.11694444,-95.12944444,Willmar Municipal
4694,ILM,34.27111111,-77.90277778,Wilmington International
4695,ILN,39.42805556,-83.79222222,Wilmington Air Park
4714,IML,40.51027778,-101.62027778,Imperial Municipal
4716,IMM,26.43388889,-81.40138889,Immokalee Regional
4719,IMT,45.81833333,-88.11444444,Ford
4722,IN1,41.30722222,-85.06444444,De Kalb County
4723,IN2,40.03055556,-86.25138889,Indianapolis Executive
4728,IND,39.71722222,-86.29472222,Indianapolis International
4737,INL,48.56555556,-93.40222222,Falls International Einarson Field
4742,INS,36.58722222,-115.67333333,Creech AFB
4744,INT,36.13361111,-80.22194444,Smith Reynolds
4751,INW,35.02166667,-110.72305556,Winslow-Lindbergh Regional
4769,IOW,41.63972222,-91.54805556,Iowa City Municipal
4782,IPL,32.83416667,-115.57888889,Imperial County
4786,IPT,41.23833333,-76.93555556,Williamsport Regional
4793,IRC,65.82805556,-144.07611111,Circle City
4803,IRK,40.09333333,-92.545,Kirksville Regional
4808,IRS,41.8,-85.41666667,Sturgis Airport
4811,IRV,30.45527778,-88.21111111,Roy E. Ray
4828,ISL,63.5,-145.03333333,Isabel Pass Airport
4830,ISM,28.28972222,-81.43694444,Kissimmee Gateway
4832,ISN,48.17805556,-103.64222222,Sloulin Field International
4834,ISO,35.33138889,-77.60888889,Kinston Regional Jetport at Stallings Field
4836,ISP,40.79527778,-73.10027778,Long Island MacArthur
4838,ISQ,45.97444444,-86.17166667,Schoolcraft County
4842,ISS,43.96138889,-69.7125,Wiscasset Airport
4848,ISW,44.36055556,-89.83805556,Alexander Field South Wood County
4850,ITH,42.49138889,-76.45861111,Ithaca Tompkins Regional
4858,ITO,19.72027778,-155.04833333,Hilo International
4882,IWD,46.5275,-90.13138889,Gogebic-Iron County
4888,IWS,29.81805556,-95.6725,West Houston
4931,IYK,35.65861111,-117.82944444,Inyokern Airport
4941,JAC,43.60722222,-110.73777778,Jackson Hole
4949,JAJ,33.765,-84.41777778,Perimeter Mall Helipad
4957,JAN,32.31111111,-90.07583333,Jackson Medgar Wiley Evers International
4958,JAO,33.93333333,-84.15,Beaver Ruin
4962,JAX,30.49416667,-81.68777778,Jacksonville International
4963,JBC,42.33333333,-71.25,Boston City Heliport
4966,JBP,33.98666667,-118.16055556,Commerce Business Park Heliport
4968,JBR,35.83166667,-90.64638889,Jonesboro Municipal
4970,JCC,37.8,-122.46666667,China Basin Heliport
4971,JCE,37.80555556,-122.275,Oakland Convention Center Heliport
4974,JCI,38.83083333,-94.89027778,New Century Aircenter
4978,JDA,44.40277778,-118.96777778,Grant County Regional/Ogilvie Field
4979,JDB,32.76666667,-97.31666667,Downtown Heliport
4984,JDM,25.76666667,-80.18333333,Miami Downtown Heliport
4986,JDT,44.98277778,-93.26833333,Minneapolis Heliport
4987,JDX,29.76666667,-95.33333333,Houston Central Business District Heliport
4994,JEF,38.59111111,-92.15611111,Jefferson City Memorial
5000,JFK,40.63972222,-73.77888889,John F. Kennedy International
5002,JFN,41.77805556,-80.69555556,Northeast Ohio Regional
5006,JGC,35.96666667,-112.13333333,Grand Canyon Heliport
5007,JGG,37.23916667,-76.71611111,Williamsburg-Jamestown
5008,JGL,33.58333333,-84.46666667,Galleria
5010,JGQ,29.73666667,-95.45916667,Transco Tower Galleria Heliport
5014,JHC,40.74444444,-73.60833333,Island Heliport
5017,JHM,20.96305556,-156.67305556,Kapalua Airport
5023,JHW,42.15333333,-79.25805556,Chautauqua County/Jamestown
5024,JHY,42.28333333,-71.13333333,Cambridge Airport
5028,JID,34.02444444,-117.95916667,Civic Financial Center Heliport
5049,JKV,31.86944444,-95.2175,Cherokee County
5051,JLA,60.48416667,-149.72277778,Quartz Creek
5053,JLN,37.15194444,-94.49833333,Joplin Regional
5056,JMA,29.68333333,-95.4,Astrodome
5060,JMC,37.87861111,-122.50972222,Marin County Heliport
5064,JMN,44.16388889,-94.00416667,Downtown Heliport
5066,JMS,46.92972222,-98.67805556,Jamestown Regional
5070,JNP,33.61388889,-117.88972222,Newport Beach Airport
5073,JNU,58.35472222,-134.57472222,Juneau International
5079,JOC,33.66666667,-117.86666667,Centerport Heliport
5102,JPT,29.50861111,-95.05027778,Park Ten Helipad
5104,JQF,35.38777778,-80.70916667,Concord Regional
5105,JRA,40.75444444,-74.0075,West 30th Street Heliport
5107,JRB,40.70111111,-74.00916667,Downtown Manhattan/Wall Street Heliport
5108,JRC,44.00138889,-92.48055556,Appache Heliport
5109,JRE,40.8,-73.96666667,East 60th Street Heliport
5111,JRF,21.30722222,-158.07027778,Kalaeloa
5121,JSE,58.30166667,-134.42444444,Juneau Seaplane Base
5124,JSK,45.55,-94.2,Crossroads Heliport
5130,JST,40.31555556,-78.83472222,John Murtha Johnstown-Cambria County
5149,JVL,42.62027778,-89.04166667,Southern Wisconsin Regional
5152,JWH,29.73638889,-95.5475,Westchase Heliport
5153,TN8,36.1825,-86.88666667,John C Tune
5155,JXN,42.26055556,-84.46055556,Jackson County-Reynolds Field
5160,JZA,32.31111111,-89.135,James H Easom Field
5161,JZB,42.57,-72.28861111,Orange Municipal
5163,JZC,48.30083333,-102.40638889,Stanley Municipal
5165,JZE,60.81555556,-151.79888889,Trading Bay Production
5167,JZG,43.76611111,-99.32111111,Chamberlain Municipal
5170,JZI,36.59277778,-86.47694444,Portland Municipal
5172,JZJ,46.72194444,-92.04333333,Sky Harbor
5174,JZK,46.70111111,-92.50361111,Cloquet Carlton County
5176,JZL,33.02277778,-118.58861111,San Clemente Island Nalf
5179,JZM,66.17611111,-155.68472222,Hog River Airport
5180,JZN,47.21166667,-119.83972222,Quincy Municipal
5181,JZO,42.79722222,-112.82527778,American Falls Airport
5183,JZP,42.7425,-122.48888889,Prospect State
5185,JZQ,28.47361111,-82.45555556,Brooksville Tampa Bay Regional
5187,JZR,45.70444444,-108.75944444,Laurel Municipal
5189,JZT,32.66388889,-97.09416667,Arlington Municipal
5191,JZU,42.89111111,-73.24611111,William H. Morse State
5193,JZV,34.83305556,-92.25416667,North Little Rock Municipal
5196,JZW,31.415,-87.04333333,Middleton Field
5198,JZX,38.58,-122.43555556,Angwin-Parrett Field
5200,JZY,45.9425,-116.12333333,Idaho County
5204,K01,36.8,-86.81027778,Russellville-Logan County
5216,KAE,56.97333333,-133.94388889,Kake Seaplane Base
5225,KAL,64.31888889,-158.74138889,Kaltag Airport
5241,KBC,66.27444444,-145.81805556,Birch Creek Airport
5242,KBE,55.92944444,-131.57,Bell Island Hot Springs Seaplane Base
5245,KBK,57.64472222,-136.09305556,Klag Bay Airport
5265,KCC,56.03333333,-132.91666667,Coffman Cove Seaplane Base
5269,KCG,56.31138889,-158.37305556,Chignik Bay Airport
5273,KCL,56.31111111,-158.53416667,Chignik Lagoon Airport
5274,KCN,53.4,-167.55,Chernofski Harbor
5277,KCQ,56.25555556,-158.77777778,Chignik Lake
5278,KCR,63.57111111,-156.00527778,Colorado Creek Airport
5285,KDK,57.80583333,-152.37388889,Kodiak Municipal
5289,KEB,59.35222222,-151.92527778,Nanwalek Airport
5293,KEH,47.75472222,-122.25916667,Kenmore Air Harbor
5296,KEK,59.35694444,-157.47111111,Ekwok Airport
5314,OCA,25.32527778,-80.27472222,Ocean Reef Club
5320,KFP,54.84777778,-163.40722222,False Pass Airport
5336,KGK,59.72666667,-157.25944444,Koliganek Airport
5349,KGX,62.89222222,-160.06638889,Grayling Airport
5351,KGZ,61.455,-142.38083333,Glacier Creek Airport
5371,KIB,55.9,-159.48333333,Ivanof Bay Seaplane Base
5419,KKA,64.93944444,-161.15416667,Koyuk Alfred Adams
5420,KKB,58.19166667,-152.35,Kitoi Bay Airport
5426,KKH,59.96166667,-162.88055556,Kongiganak Airport
5431,KKI,60.91388889,-161.49333333,Akiachak Airport
5435,KKK,64.42444444,-156.84333333,Kalakaket Creek AS
5436,KKL,57.36777778,-154.02527778,Karluk Lake Seaplane Base
5442,KKU,58.81111111,-158.55888889,Ekuk Airport
5449,KLG,61.53583333,-160.34555556,Kalskag Airport
5452,KLL,59.12694444,-156.86,Levelock Airport
5454,KLN,57.535,-153.97666667,Larsen Bay Airport
5459,KLP,57.55,-134.86666667,Kelp Bay Airport
5463,KLS,46.11805556,-122.89833333,Southwest Washington Regional
5469,KLW,55.57916667,-133.07611111,Klawock Airport
5489,KMO,58.98166667,-159.05666667,Manokatak Seaplane Base
5502,KMY,57.02638889,-154.14361111,Moser Bay Airport
5505,KNB,37.01111111,-112.53111111,Kanab Municipal
5508,KNK,59.43333333,-154.8025,Kokhanok Airport
5515,KNT,36.22583333,-90.03666667,Kennett Memorial
5519,KNW,59.45166667,-157.37305556,New Stuyahok Airport
5526,KOA,19.73888889,-156.04555556,Kona International Airport at Keahole
5545,KOT,63.03055556,-163.53277778,Kotlik Airport
5547,KOY,57.16222222,-154.2275,Olga Bay Seaplane Base
5549,KOZ,57.94222222,-152.465,Ouzinkie Airport
5550,KPB,56.35,-133.61666667,Point Baker Airport
5552,KPC,65.25333333,-166.8575,Port Clarence CGS
5553,KPH,54.45,-162.68333333,Pauloff Harbor Airport
5556,KPK,57.43361111,-153.9,Parks Seaplane Base
5557,KPM,61.53138889,-158.64083333,Napamute Airport
5560,KPN,59.93166667,-164.02833333,Kipnuk Airport
5564,KPR,58.43333333,-152.58333333,Port Williams Airport
5569,KPV,55.90666667,-159.16083333,Perryville Airport
5570,KPY,57.93333333,-153.03333333,Port Bailey Airport
5571,KQA,54.13333333,-165.78333333,Akutan Airport
5590,KS2,38.3025,-95.725,Coffey County
5615,KSM,62.06083333,-163.30194444,St. Mary's Airport
5620,KSR,56.24444444,-160.38638889,Federal No.1
5625,KTB,55.68833333,-132.535,Thorne Bay Seaplane Base
5631,KTN,55.35416667,-131.71111111,Ketchikan International
5636,KTS,65.33138889,-166.46583333,Brevig Mission Airport
5654,KUK,60.87333333,-162.52444444,Kasigluk Airport
5666,KUW,68.30694444,-161.4,Kugururok River Airport
5675,KVC,55.11638889,-162.26611111,King Cove Airport
5679,KVL,67.73611111,-164.56361111,Kivalina Airport
5684,KWF,55.29722222,-133.24055556,Waterfall Seaplane Base
5691,KWK,59.87555556,-163.16805556,Kwigillingok Airport
5695,KWN,59.755,-161.84527778,Quinhagak Airport
5696,KWP,57.76694444,-153.55,West Point Village
5698,KWT,60.79027778,-161.44361111,Kwethluk Airport
5702,KXA,55.53777778,-132.39583333,Kasaan Seaplane Base
5705,KY1,37.5775,-84.76944444,Stuart Powell Field
5707,KY2,37.54166667,-87.95444444,Sturgis Municipal
5708,KY3,38.05805556,-83.97944444,Mount Sterling - Montgomery County
5710,KY4,37.80777778,-87.68583333,Henderson City - County
5712,KY5,37.35583333,-87.39833333,Madisonville Municipal
5716,KYC,63.00194444,-156.36722222,Yankee Creek 2
5718,KYK,57.56611111,-154.45388889,Karluk Airport
5721,KYU,64.87583333,-157.73055556,Koyukuk Airport
5722,KZB,57.55,-153.75,Zachar Bay Airport
5723,KZH,57.58305556,-153.15,Kizhuyak Airport
5731,LAA,38.06972222,-102.68861111,Lamar Municipal
5741,LAF,40.41222222,-86.93694444,Purdue University
5748,LAL,27.98888889,-82.01861111,Lakeland Linder Regional
5750,LAM,35.87972222,-106.26861111,Los Alamos Airport
5753,LAN,42.77861111,-84.58611111,Capital Region International
5760,LAR,41.31194444,-105.675,Laramie Regional
5763,LAS,36.08,-115.15222222,McCarran International
5769,LAW,34.56777778,-98.41666667,Lawton-Fort Sill Regional
5772,LAX,33.9425,-118.40805556,Los Angeles International
5784,LBB,33.66361111,-101.82055556,Lubbock Preston Smith International
5792,LBE,40.27472222,-79.40666667,Arnold Palmer Regional
5794,LBF,41.12611111,-100.68361111,North Platte Regional Airport Lee Bird Field
5803,LBL,37.04388889,-100.96,Liberal Mid-America Regional
5814,LBT,34.60972222,-79.05944444,Lumberton Regional
5834,LCH,30.12611111,-93.22333333,Lake Charles Regional
5836,LCI,43.57305556,-71.41777778,Laconia Municipal
5839,LCK,39.81388889,-82.92777778,Rickenbacker International
5858,LDJ,40.6175,-74.24472222,Linden Airport
5862,LDM,43.9625,-86.40805556,Mason County
5873,LEB,43.62611111,-72.30416667,Lebanon Municipal
5879,LEE,28.82277778,-81.80833333,Leesburg International
5900,LEW,44.04833333,-70.28361111,Auburn Lewiston Municipal
5903,LEX,38.03666667,-84.60861111,Blue Grass
5905,LFI,37.08277778,-76.36055556,Langley AFB
5908,LFK,31.23416667,-94.75,Angelina County
5914,LFT,30.205,-91.98777778,Lafayette Regional
5918,LGA,40.77722222,-73.8725,LaGuardia
5920,LGB,33.81777778,-118.15166667,Long Beach Airport
5922,LGC,33.00888889,-85.0725,LaGrange-Callaway
5925,LGD,45.28972222,-118.00638889,La Grande/Union County
5935,LGM,40.16166667,-105.16138889,Longmont Municipal
5944,LGU,41.79138889,-111.85166667,Logan Cache
5951,LHB,54.22611111,-165.61111111,Lost Harbor Airport
5956,LHQ,39.75555556,-82.65722222,Fairfield County
5962,LHV,41.13583333,-77.42222222,William T. Piper Memorial
5965,LHX,38.05,-103.50972222,La Junta Municipal
5969,LIC,39.27472222,-103.66583333,Limon Municipal
5978,LIH,21.97611111,-159.33888889,Lihue Airport
5979,LIJ,54.9,-132.75,Long Island Airport
6001,LIT,34.72944444,-92.22472222,Bill and Hillary Clinton Nat Adams Field
6002,LIV,65.53111111,-148.54111111,Livengood Airport
6007,LIY,31.88833333,-81.56166667,Wright AAF/Midcoast Regional
6010,LIZ,46.95055556,-67.88583333,Loring International
6015,LJN,29.03833333,-95.45694444,Brazoria County
6020,LJY,37.64833333,-92.6525,Floyd W Jones Lebanon
6021,LKE,47.62888889,-122.33861111,Lake Union Terminal
6024,LKK,58.965,-155.09555556,Kulik Lake Airport
6036,LKP,44.26444444,-73.96194444,Lake Placid Airport
6038,LKV,42.16111111,-120.39916667,Lake County
6047,LLY,39.94277778,-74.84583333,South Jersey Regional
6049,LMA,63.88583333,-152.30194444,Lake Minchumina Airport
6064,LMS,33.14611111,-89.0625,Louisville Winston County
6066,LMT,42.15611111,-121.73305556,Klamath Falls Airport
6069,LND,42.81555556,-108.72833333,Hunt Field
6075,LNI,70.91083333,-153.24222222,Lonely AS
6077,LNK,40.85083333,-96.75916667,Lincoln Airport
6080,LNL,46.15416667,-89.21194444,Kings Land O' Lakes
6082,LNP,36.9875,-82.53,Lonesome Pine
6084,LNS,40.12222222,-76.29444444,Lancaster Airport
6087,LNT,32.81194444,-85.22972222,Lanett Municipal
6089,LNY,20.78555556,-156.95138889,Lanai Airport
6101,LOL,40.06638889,-118.565,Derby Field
6112,LOU,38.22805556,-85.66361111,Bowman Field
6116,LOZ,37.08694444,-84.0775,London-Corbin Airport-Magee Field
6123,LPC,34.66555556,-120.4675,Lompoc Airport
6129,LPO,41.5725,-86.73444444,La Porte Municipal
6138,LPS,48.48388889,-122.93777778,Lopez Island Airport
6142,LPW,56.38333333,-134.83333333,Little Port Walter Airport
6143,LQK,34.81,-82.70277778,Pickens County
6151,LRD,27.54416667,-99.46166667,Laredo International
6156,LRF,34.9175,-92.145,Little Rock AFB
6158,WLR,55.60166667,-131.635,Loring Airport
6165,LRN,47.14305556,-119.24027778,Larson AFB
6166,LRO,37.83666667,-121.27222222,Sharpe AFF
6171,LRU,32.28944444,-106.92194444,Las Cruces International
6179,LSE,43.87916667,-91.25666667,La Crosse Regional
6182,LSF,32.33166667,-84.98722222,Lawson AAF
6188,LSN,37.06388889,-120.86972222,Los Banos Municipal
6203,LSV,36.23611111,-115.03416667,Nellis AFB
6223,LTS,34.66638889,-99.26805556,Altus AFB
6233,LUF,33.535,-112.38305556,Luke AFB
6238,LUK,39.10333333,-84.41861111,Cincinnati Municipal Lunken Field
6240,LUL,31.67305556,-89.17277778,Hesler-Noble Field
6245,LUP,21.21111111,-156.97361111,Kalaupapa Airport
6249,LUR,68.875,-166.11111111,Cape Lisburne LRRS
6255,LVD,61.35916667,-155.44027778,Lime Village Airport
6260,LVK,37.69333333,-121.82027778,Livermore Municipal
6261,LVM,45.66666667,-110.56666667,Livingston Airport
6264,LVS,35.65416667,-105.1425,Las Vegas Municipal
6266,LWB,37.85833333,-80.39944444,Greenbrier Valley
6268,LWC,39.01111111,-95.21638889,Lawrence Municipal
6270,LWF,35.23444444,-87.25805556,Lawrenceburg-Lawrence County
6272,LWL,41.11722222,-114.92222222,Wells Municipal/Harriet Field
6274,LWM,42.71722222,-71.12333333,Lawrence Municipal
6279,LWS,46.37444444,-117.01527778,Lewiston Nez Perce County
6281,LWT,47.04916667,-109.46666667,Lewistown Municipal
6283,LWV,38.76416667,-87.60555556,Lawrenceville-Vincennes International
6287,LXN,40.79055556,-99.77583333,Jim Kelly Field
6292,LXV,39.21944444,-106.31638889,Lake County
6302,LYH,37.32666667,-79.20111111,Lynchburg Regional/Preston Glenn Field
6315,LYU,47.82388889,-91.82944444,Ely Municipal
6325,LZU,33.97805556,-83.9625,Gwinnett County - Briscoe Field
6326,MA1,41.35833333,-70.52444444,Katama Airpark
6336,MAC,32.82166667,-83.56194444,Macon Downtown
6341,MAE,36.98861111,-120.1125,Madera Municipal
6343,MAF,31.9425,-102.20194444,Midland International
6370,MAW,36.59833333,-89.9925,Malden Regional
6392,MBL,44.2725,-86.24694444,Manistee County-Blacker
6397,MBS,43.53305556,-84.07972222,MBS International
6405,MBY,39.46333333,-92.42638889,Omar N Bradley
6411,MCB,31.17833333,-90.47194444,McComb/Pike County/John E. Lewis Field
6414,MCC,38.66777778,-121.40055556,McClellan Airfield
6416,MCD,45.865,-84.63722222,Mackinac Island Airport
6418,MCE,37.28472222,-120.51388889,Merced Regional/Macready Field
6420,MCF,27.84944444,-82.52111111,Macdill AFB
6422,MCG,62.95277778,-155.60694444,McGrath Airport
6425,MCI,39.2975,-94.71388889,Kansas City International
6428,MCK,40.20638889,-100.59194444,McCook Ben Nelson Regional
6430,MCL,63.645,-148.79805556,Denali
6433,MCN,32.69277778,-83.64916667,Middle Georgia Regional
6435,MCO,28.42944444,-81.30888889,Orlando International
6449,MCW,43.15777778,-93.33138889,Mason City Municipal
6453,MDA,29.43138889,-98.37777778,Martindale AHP
6459,MDD,32.03666667,-102.10111111,Midland Airpark
6463,MDF,45.10138889,-90.30027778,Taylor County
6468,MDH,37.77805556,-89.25194444,Southern Illinois
6472,MDJ,44.67027778,-121.15527778,Madras Municipal
6477,MDO,59.45,-146.30722222,Middleton Island Airport
6480,MDR,63.10694444,-154.71666667,Medfra Airport
6486,MDT,40.19305556,-76.7625,Harrisburg International
6491,MDW,41.78583333,-87.7525,Chicago Midway International
6498,ME1,44.99194444,-70.66472222,Steven A. Bean Municipal
6508,MEI,32.3325,-88.75194444,Key Field
6509,MEJ,41.62666667,-80.21472222,Port Meadville
6513,MEM,35.0425,-89.97666667,Memphis International
6517,MEO,35.91888889,-75.69555556,Dare County Regional
6520,MER,37.38055556,-120.56805556,Castle
6525,MEV,39.00083333,-119.75194444,Minden-Tahoe
6534,MFD,40.82138889,-82.51666667,Mansfield Lahm Regional
6536,MFE,26.17583333,-98.23861111,McAllen Miller International
6541,MFH,36.83305556,-114.05583333,Mesquite Airport
6543,MFI,44.63694444,-90.18944444,Marshfield Municipal
6551,MFR,42.37416667,-122.87361111,Rogue Valley International - Medford
6557,MFV,37.64694444,-75.76111111,Accomack County
6565,MGC,41.70333333,-86.82111111,Michigan City Municipal-Phillips Field
6569,MGE,33.91527778,-84.51638889,Dobbins ARB
6573,MGJ,41.51,-74.26472222,Orange County
6578,MGM,32.30055556,-86.39388889,Montgomery Regional
6586,MGR,31.06944444,-83.80277778,Moultrie/Thomasville Airport
6589,MGW,39.64305556,-79.91638889,Morgantown Municipal-Walter L. Bill Hart Field
6591,MGY,39.58888889,-84.22472222,Dayton-Wright Brothers
6598,MHE,43.77472222,-98.03861111,Mitchell Municipal
6606,MHK,39.14111111,-96.67166667,Manhattan Regional
6608,MHL,39.09555556,-93.20277778,Marshall Memorial Municipal
6610,MHM,63.88583333,-152.30194444,Minchumina Airport
6616,MHR,38.55527778,-121.29722222,Sacramento Mather
6620,MHT,42.93277778,-71.43583333,Manchester-Boston Regional
6623,MHV,35.05888889,-118.15055556,Mojave Airport
6626,MI1,43.14222222,-85.25388889,Greenville Municipal
6629,MI2,42.74277778,-86.10777778,West Michigan Regional
6631,MI3,42.62944444,-83.98222222,Livingston County Spencer J. Hardy
6634,MIA,25.79527778,-80.29,Miami International
6636,MIB,48.41583333,-101.35805556,Minot AFB
6638,MIC,45.06194444,-93.35388889,Crystal
6642,MIE,40.2425,-85.39583333,Delaware County Regional
6657,MIO,36.90916667,-94.8875,Miami Municipal
6662,MIQ,41.19611111,-96.11222222,Millard
6670,MIT,35.5075,-119.19222222,Shafter - Minter Field
6674,MIV,39.36777778,-75.07222222,Millville Municipal
6676,MIW,42.11277778,-92.91777778,Marshalltown Municipal
6703,MJQ,43.63333333,-94.98333333,Jackson Airport
6714,MJX,39.92611111,-74.29555556,Ocean County
6722,MKC,39.12305556,-94.59277778,Charles B. Wheeler Downtown
6727,MKE,42.94694444,-87.89694444,General Mitchell International
6729,MKG,43.16888889,-86.2375,Muskegon County
6735,MKK,21.15277778,-157.09638889,Molokai
6737,MKL,35.6,-88.91555556,McKellar-Sipes Regional
6741,MKO,35.65777778,-95.36166667,Davis Field
6748,MKT,44.22277778,-93.91944444,Mankato Regional
6762,MLB,28.10277778,-80.64527778,Melbourne International
6764,MLC,34.8825,-95.78333333,McAlester Regional
6766,MLD,42.17055556,-112.28944444,Malad City Airport
6771,MLF,38.42666667,-113.01333333,Milford Municipal/Ben and Judy Briscoe Field
6779,MLI,41.44833333,-90.5075,Quad City International
6780,MLK,48.36694444,-107.91944444,Malta Airport
6781,MLL,61.86416667,-162.02611111,Marshall Don Hunter Sr.
6794,MLS,46.42805556,-105.88611111,Frank Wiley Field
6795,MLT,45.64777778,-68.68555556,Millinocket Municipal
6797,MLU,32.51083333,-92.03777778,Monroe Regional
6806,MLY,64.98805556,-150.6475,Manley Hot Springs Airport
6818,MMH,37.63111111,-118.85138889,Mammoth Lakes Airport
6820,MMI,35.39916667,-84.56166667,McMinn County
6828,MML,44.45166667,-95.82444444,Southwest Minnesota Regional-Marshall/Ryan Field
6832,MMN,42.46055556,-71.51777778,Minute Man Air Field
6839,MMT,33.92083333,-80.80111111,McEntire Jngb
6841,MMU,40.79944444,-74.415,Morristown Municipal
6848,MN1,47.59277778,-95.77361111,Fosston Municipal
6850,MN2,46.41861111,-92.80472222,Moose Lake Carlton County
6851,MN3,45.30555556,-96.42444444,Ortonville Municipal-Martinson Field
6867,MNM,45.12666667,-87.63861111,Menominee-Marinette Twin County
6869,MNN,40.61638889,-83.06333333,Marion Municipal
6878,MNT,65.14805556,-149.36861111,Minto Al Wright
6886,MNZ,38.72138889,-77.51555556,Manassas Regional/Harry P. Davis Field
6888,MO1,39.3325,-94.30972222,Midwest National Air Center
6889,MO2,38.5875,-90.99388889,Washington Regional
6894,MOB,30.69138889,-88.24277778,Mobile Regional
6898,MOD,37.62583333,-120.95444444,Modesto City-County-Harry Sham Field
6906,MOP,43.62166667,-84.73722222,Mount Pleasant Municipal
6911,MOR,36.17944444,-83.37555556,Moore-Murrell
6913,MOS,64.69805556,-162.05722222,Moses Point Airport
6915,MOT,48.25777778,-101.27805556,Minot International
6918,MOU,62.09472222,-163.68277778,Mountain Village Airport
6924,MPB,25.77833333,-80.17027778,Watson Island International
6925,ID2,42.33611111,-111.28888889,Montpelier Airport
6927,MPJ,35.13888889,-92.90916667,Petit Jean Park
6939,MPO,41.13777778,-75.38,Pocono Mountains Municipal
6941,MPR,38.3525,-97.69138889,McPherson Airport
6947,MPV,44.20361111,-72.56222222,Edward F Knapp State
6950,MQB,40.52,-90.6525,Macomb Municipal
6952,MQJ,39.84361111,-85.89694444,Indianapolis Regional
6965,MQT,46.35361111,-87.39527778,Sawyer International
6968,MQY,36.00888889,-86.52,Smyrna Airport
6974,MRB,39.40194444,-77.98472222,Eastern WV Regional/Shepherd Field
6976,MRC,35.55444444,-87.17916667,Maury County
6984,MRI,61.21361111,-149.84472222,Merrill Field
6986,MRK,25.995,-81.6725,Marco Island Airport
6987,MRN,35.83333333,-81.61666667,Morganton Lenoir
7004,MRY,36.58694444,-121.84305556,Monterey Regional
7008,MS1,33.8325,-89.79805556,Grenada Municipal
7011,MSC,33.46083333,-111.72833333,Falcon Field
7019,MSL,34.74527778,-87.61027778,Northwest Alabama Regional
7021,MSN,43.14,-89.3375,Dane County Regional-Truax Field
7023,MSO,46.91638889,-114.09055556,Missoula International
7025,MSP,44.88194444,-93.22166667,Minneapolis-St Paul International
7030,MSS,44.93611111,-74.845,Massena International-Richards Field
7034,MSV,41.70166667,-74.795,Sullivan County International
7039,MSY,29.99333333,-90.25916667,Louis Armstrong New Orleans International
7042,MT1,45.85277778,-106.70916667,Colstrip Airport
7045,MTC,42.61388889,-82.83694444,Selfridge Angb
7050,MTH,24.72611111,-81.05138889,The Florida Keys Marathon
7052,MTJ,38.50972222,-107.89416667,Montrose Regional
7055,MTM,55.13333333,-131.58333333,Metlakatala
7056,MTN,39.32555556,-76.41388889,Martin State
7059,MTO,39.47777778,-88.28,Coles County Memorial
7060,MTP,41.07666667,-71.92055556,Sky Portal
7069,MTW,44.12888889,-87.68055556,Manitowoc County
7071,MTX,64.80666667,-147.7625,Metro Field
7086,MUE,20.00138889,-155.66805556,Waimea-Kohala
7094,MUL,31.13777778,-83.70416667,Spence
7098,MUO,43.04361111,-115.8725,Mountain Home AFB
7102,MUT,41.36777778,-91.14833333,Muscatine Municipal
7115,MVL,44.53472222,-72.61388889,Morrisville Stowe State
7117,MVM,36.71638889,-110.22833333,Kayenta Airport
7119,MVN,38.32333333,-88.85861111,Mount Vernon Airport
7124,MVW,48.47055556,-122.42166667,Skagit Regional
7126,MVY,41.39333333,-70.61388889,Martha's Vineyard Airport
7128,MWA,37.755,-89.01111111,Williamson County Regional
7130,MWC,43.11027778,-88.03444444,Lawrence J Timmerman
7135,MWH,47.20861111,-119.31916667,Grant County International
7137,MWL,32.78166667,-98.06027778,Mineral Wells Airport
7139,MWM,43.91333333,-95.10944444,Windom Municipal
7141,MWO,39.53194444,-84.39638889,Middletown Regional/Hook Field
7149,MXC,37.93722222,-109.34638889,Monticello Airport
7152,MXE,34.79222222,-79.36583333,Laurinburg-Maxton
7154,MXF,32.38305556,-86.36583333,Maxwell AFB
7156,MXG,42.34305556,-71.50888889,Marlboro Airport
7174,MXY,61.43777778,-142.9025,McCarthy Airport
7183,MYF,32.81583333,-117.13944444,Montgomery Field
7191,MYH,36.73444444,-111.75277778,Cliff Dwellers
7195,MYK,61.33555556,-142.68666667,May Creek Airport
7197,MYL,44.88861111,-116.10166667,McCall Municipal
7202,MYR,33.67972222,-78.92833333,Myrtle Beach International
7207,MYU,60.37138889,-166.27055556,Mekoryuk Airport
7209,MYV,39.09777778,-121.56972222,Yuba County
7220,MZJ,32.50972222,-111.32527778,Pinal Airpark
7236,MZZ,40.49,-85.67972222,Marion Municipal
7237,N47,40.26027778,-75.67083333,Pottstown Municipal
7238,N87,40.21388889,-74.60166667,Trenton-Robbinsville
7244,NAD,42.69611111,-73.17027778,Harriman-and-West
7271,NBG,29.82722222,-90.02666667,New Orleans NAS JRB
7282,NC1,35.20277778,-81.15,Gastonia Municipal
7283,NC2,35.54083333,-78.39027778,Johnston County
7285,NC3,35.25583333,-81.60083333,Shelby-Cleveland County Regional
7287,NC4,36.4,-76.01555556,Currituck County Regional
7288,NC5,35.0,-77.98166667,Duplin County
7304,NCN,60.07861111,-147.99472222,Chenega Bay
7305,NCO,41.59944444,-71.41666667,Quonset State Air Reserve National Guard Helipad
7307,NCQ,33.91527778,-84.51638889,Dobbins ARB
7320,ND1,46.64861111,-96.99888889,Robert Odegaard Field
7336,NE1,40.92555556,-100.14666667,Quinn Field
7338,NE2,41.41472222,-96.10888889,Blair Municipal
7344,NEL,40.035,-74.35222222,Lakehurst/Maxfield Field
7357,NEW,30.0425,-90.02833333,Lakefront
7359,NFL,39.41777778,-118.69861111,Fallon NAS
7363,NGC,36.18333333,-112.13333333,North Rim
7370,NGF,21.45055556,-157.76805556,Kaneohe Bay MCAS
7377,NGP,27.69277778,-97.29027778,Corpus Christi NAS
7383,NGU,36.9375,-76.28916667,Norfolk NS
7395,NHK,38.28638889,-76.41,Patuxent River NAS
7401,NHZ,43.89222222,-69.93888889,Brunswick Executive
7405,NIB,63.01861111,-154.35833333,Nikolai Airport
7408,NIE,55.06666667,-132.14583333,Niblack Airport
7413,NIN,60.02027778,-151.58944444,Ninilchik Airport
7415,NIP,30.23388889,-81.675,Jacksonville NAS
7420,NJ1,39.77833333,-74.94777778,Camden County
7422,NJ2,39.665,-74.3075,Eagles Nest
7428,NJK,32.82916667,-115.67166667,El Centro NAF
7434,NKI,55.875,-133.22083333,Naukiti Airport
7440,NKT,34.90083333,-76.88083333,Cherry Point MCAS
7441,NKV,55.85,-133.21666667,Nichin Cove Seaplane Base
7446,NKX,32.86861111,-117.14305556,Miramar MCAS
7454,NLC,36.33305556,-119.95222222,Lemoore NAS
7458,NLG,56.0075,-161.16027778,Nelson Lagoon Airport
7474,NME,60.46916667,-164.70416667,Nightmute Airport
7481,NNK,58.73472222,-157.02527778,Naknek Airport
7483,NNL,59.98027778,-154.83916667,Nondalton Airport
7507,NOT,38.14361111,-122.55611111,Gnoss Field
7514,NPA,30.35333333,-87.31805556,Pensacola NAS
7522,NPT,41.5325,-71.28222222,Newport State
7524,NQA,35.35666667,-89.87055556,Millington Regional Jetport
7526,NQI,27.50444444,-97.80833333,Kingsville NAS
7530,NQX,24.57583333,-81.68888889,Key West NAS
7537,NRB,30.39138889,-81.42444444,Mayport NS
7539,NRI,36.5775,-94.86194444,Grand Lake Regional
7552,NSE,30.72416667,-87.02194444,Whiting Field NAS North
7555,NSF,38.81083333,-76.86694444,Joint Base Andrews
7559,NSL,28.615,-80.69444444,NASA Shuttle Landing Facility
7569,NTD,34.11916667,-119.11972222,Point Mugu NAS
7583,NTU,36.82277778,-76.03194444,Oceana NAS
7593,NUI,70.20972222,-151.00638889,Nuiqsut Airport
7595,NUL,64.72944444,-158.07416667,Nulato Airport
7597,NUN,30.46972222,-87.33805556,Saufley Field NOLF
7599,NUP,60.90611111,-162.44055556,Nunapitchuk Airport
7602,NUQ,37.41611111,-122.04916667,Moffett Federal Airfield
7604,NUW,48.35194444,-122.65583333,Whidbey Island NAS
7605,NV1,36.56805556,-114.44333333,Perkins Field
7611,NVD,37.8525,-94.30472222,Nevada Municipal
7620,NXX,40.19972222,-75.14805556,Willow Grove NAS JRB
7622,NY1,41.98527778,-73.96444444,Kingston Ulster
7623,NY2,43.35083333,-76.38805556,Oswego County
7625,NYC,40.72722222,-73.92666667,New York City Metropolitan Area
7626,NYL,32.65666667,-114.60583333,Yuma MCAS/Yuma International
7634,NZC,30.21888889,-81.87722222,Cecil
7635,NZJ,33.6675,-117.71833333,El Toro MCAS
7638,NZY,32.69916667,-117.21527778,North Island NAS
7640,O85,40.57361111,-122.40722222,Benton Field
7647,OAJ,34.82916667,-77.61222222,Albert J Ellis
7651,OAK,37.72138889,-122.22111111,Metropolitan Oakland International
7666,OBT,39.58083333,-79.33583333,Garrett County
7668,OBU,66.91222222,-156.89722222,Kobuk Airport
7669,OCE,38.31055556,-75.12388889,Ocean City Municipal
7672,OCF,29.17194444,-82.22416667,Ocala International-Jim Taylor Field
7674,OCH,31.57777778,-94.71,A L Mangham Jr. Regional
7675,OCI,60.2,-147.81666667,Thumb Bay
7679,OCN,33.21805556,-117.35138889,Oceanside Municipal
7681,OCW,35.57055556,-77.04972222,Warren Field
7690,ODM,39.40666667,-79.41388889,Oakland Airport
7695,ODW,48.25166667,-122.67361111,A.J. Eisenberg
7702,OFF,41.11944444,-95.90861111,Offutt AFB
7704,OFK,41.98555556,-97.435,Norfolk Regional/Karl Stefan Memorial Field
7710,OGA,41.11944444,-101.76972222,Searle Field
7712,OGB,33.45694444,-80.85944444,Orangeburg Municipal
7714,OGD,41.19555556,-112.01305556,Ogden-Hinckley
7716,OGG,20.89861111,-156.43055556,Kahului Airport
7721,OGS,44.68194444,-75.46555556,Ogdensburg International
7722,OH1,39.57027778,-83.42055556,Fayette County
7724,OH2,40.37222222,-83.81916667,Bellefontaine Regional
7726,OH3,39.44055556,-83.02305556,Ross County
7727,OH4,40.22472222,-83.35166667,Union County
7728,OH5,39.24666667,-84.38888889,Cincinnati - Blue Ash
7729,OH6,41.21027778,-81.25166667,Portage County
7731,OH7,41.15138889,-81.415,Kent State University
7734,OHC,63.32638889,-168.96888889,Northeast Cape AFS
7744,OIC,42.56638889,-75.52416667,Eaton
7749,OJC,38.8475,-94.7375,Johnson County Executive
7755,OKC,35.39305556,-97.60083333,Will Rogers World
7760,OKK,40.52805556,-86.05888889,Kokomo Municipal
7775,OLE,42.24111111,-78.37138889,Cattaraugus County-Olean
7777,OLF,48.09444444,-105.575,L. M. Clayton
7781,OLH,57.21833333,-153.26972222,Old Harbor Airport
7787,OLM,46.96944444,-122.9025,Olympia Regional
7793,OLS,31.41777778,-110.84777778,Nogales International
7796,OLU,41.44861111,-97.34083333,Columbus Municipal
7798,OLV,34.97861111,-89.78694444,Olive Branch Airport
7800,OMA,41.30305556,-95.89416667,Eppley Airfield
7804,OME,64.5125,-165.44444444,Nome Airport
7809,OMK,48.46444444,-119.51805556,Omak Airport
7823,ONA,44.07722222,-91.70833333,Winona Municipal/Max Conrad Field
7828,ONH,42.52472222,-75.06444444,Oneonta Municipal
7832,ONL,42.46944444,-98.68777778,The O'Neill Municipal-John L. Baker Field
7834,ONM,34.0225,-106.90305556,Socorro Municipal
7835,ONN,58.06805556,-153.25388889,Onion Bay Airport
7837,ONO,44.01944444,-117.01305556,Ontario Municipal
7840,ONP,44.58027778,-124.05805556,Newport Municipal
7841,ONT,34.05611111,-117.60111111,Ontario International
7845,OOB,57.48333333,-135.86666667,Cobol Alaska/Scaled/
7847,OOK,60.54138889,-165.08722222,Toksook Bay
7854,OPF,25.9075,-80.27833333,Opa-locka Executive
7857,OPH,63.14666667,-156.53111111,Ophir Airport
7862,OQA,55.93722222,-131.81277778,McDonald Lake Airport
7863,OQB,57.92638889,-156.08333333,Bible Camp Airport
7864,OQC,57.06666667,-157.81416667,Cinder River Lodge Airport
7865,OQF,58.28444444,-136.08472222,Lemesurier Island Airport
7866,OQG,57.91138889,-133.40222222,Tracy Arm Airport
7867,OQI,57.85694444,-157.08666667,Vrems Airport
7868,OQK,68.98333333,-163.44555556,Akolik Airport
7869,OQL,56.23333333,-160.075,Mels Airport
7870,OQM,56.76666667,-158.08527778,Meshik Airport
7871,OQN,60.95527778,-153.9075,Telaquana Lake Airport
7872,OQO,62.43416667,-151.41472222,Chelatna Lake Lodge Airport
7873,OQP,57.17833333,-157.73333333,Pumice Airport
7874,OQQ,60.18333333,-154.33388889,Points Alsworth
7875,OQR,60.65277778,-154.03611111,Twin Lakes Airport
7876,OQS,56.23333333,-160.22583333,Sandy Airport
7880,OQV,61.01361111,-151.40694444,Shirleyville Airport
7881,OQW,61.43416667,-157.05,Doug Carney Strip Airport
7882,OQX,67.0,-162.83333333,Shisholik Airport
7883,OQY,66.88333333,-161.48333333,Camp Sivinuvik
7884,OQZ,62.04333333,-158.25638889,American Creek Airport
7886,OR1,42.51,-123.38805556,Grants Pass Airport
7889,OR2,44.87666667,-124.02861111,Siletz Bay State
7890,OR3,43.98277778,-124.11138889,Florence Municipal
7898,ORD,41.97944444,-87.9075,Chicago O'Hare International
7900,ORF,36.89472222,-76.20111111,Norfolk International
7906,ORH,42.26722222,-71.87555556,Worcester Regional
7909,ORI,57.885,-152.8475,Port Lions Airport
7913,ORL,28.54555556,-81.33305556,Executive
7922,ORT,62.96111111,-141.92805556,Northway Airport
7927,ORV,66.8175,-161.02222222,Robert/Bob/Curtis Memorial
7934,OSB,38.11055556,-92.68055556,Grand Glaize - Osage Beach
7936,OSC,44.45166667,-83.39416667,Oscoda-Wurtsmith
7940,OSH,43.98444444,-88.55694444,Wittman Regional
7959,OSU,40.07972222,-83.07305556,Ohio State University
7961,OSX,33.09027778,-89.54194444,Kosciusko/Attala County
7970,OTG,43.655,-95.57916667,Worthington Municipal
7973,OTH,43.41694444,-124.24694444,Southwest Oregon Regional
7977,OTM,41.10722222,-92.44694444,Ottumwa Regional
7983,OTS,48.49888889,-122.6625,Anacortes Airport
7986,OTZ,66.88472222,-162.59861111,Ralph Wien Memorial
7999,OUN,35.24555556,-97.47222222,University of Oklahoma/Max Westheimer
8015,OVE,39.48777778,-121.62194444,Oroville Municipal
8017,OWA,44.12333333,-93.26055556,Owatonna Degner Regional
8019,OWB,37.73888889,-87.16694444,Owensboro Daviess County
8021,OWD,42.19055556,-71.17305556,Norwood Memorial
8025,OXC,41.47861111,-73.13527778,Waterbury Oxford
8027,OXR,34.20083333,-119.20722222,Oxnard
8037,OYS,37.75,-119.58333333,Yosemite National Park Airport
8040,OZA,30.73527778,-101.20222222,Ozona Municipal
8050,OZR,31.27583333,-85.71333333,Cairns AAF
8052,PA1,41.78888889,-75.89,Husky Haven
8054,PA2,40.08611111,-78.51361111,Bedford County
8062,PAE,47.90694444,-122.28166667,Snohomish County
8068,PAH,37.06027778,-88.77305556,Barkley Regional
8070,PAK,21.89694444,-159.60305556,Port Allen
8073,PAM,30.06944444,-85.57527778,Tyndall AFB
8077,PAO,37.46111111,-122.115,Palo Alto Airport of Santa Clara County
8082,PAQ,61.595,-149.08861111,Palmer Municipal
8102,PBF,34.17444444,-91.93555556,Grider Field
8103,PBG,44.65083333,-73.46805556,Plattsburgh International
8108,PBI,26.68305556,-80.09555556,Palm Beach International
8109,PBK,57.8,-134.7,Pack Creek Airport
8125,PBX,37.56194444,-82.56638889,Pike County Hatcher Field
8129,PCA,58.90638889,-157.71111111,Portage Creek Airport
8131,PCD,43.01916667,-91.12361111,Prairie Du Chien Municipal
8132,PCE,57.15388889,-157.39694444,Painter Creek Airport
8139,PCT,40.39916667,-74.65888889,Princeton Airport
8143,PDB,59.79694444,-154.13,Pedro Bay Airport
8150,PDK,33.87555556,-84.30194444,Dekalb Peachtree
8161,PDT,45.69472222,-118.84305556,Eastern Oregon Regional at Pendleton
8166,PDX,45.58861111,-122.59694444,Portland International
8175,PEC,57.95,-136.23333333,Pelican Seaplane Base
8192,PEQ,31.3825,-103.51083333,Pecos Municipal
8203,PFA,58.72694444,-156.94333333,Paf Warren Airport
8205,PFD,57.95,-135.65,Port Frederick Airport
8212,PGA,36.92611111,-111.44833333,Page Municipal
8214,PGD,26.91888889,-81.99083333,Punta Gorda Airport
8226,PGL,30.37638889,-88.49527778,Jackson County
8228,PGM,59.34861111,-151.83027778,Port Graham Airport
8230,PGO,37.28638889,-107.05611111,Stevens Field
8231,PGS,35.52833333,-113.24666667,Peach Springs Dirt Strip
8233,PGV,35.63527778,-77.38527778,Pitt Greenville
8241,PHD,40.47027778,-81.42,Harry Clever Field
8246,PHF,37.13194444,-76.49305556,Newport News/Williamsburg International
8250,PHL,39.87222222,-75.24083333,Philadelphia International
8252,PHN,42.91083333,-82.52888889,St. Clair County International
8255,PHO,68.34861111,-166.79916667,Point Hope Airport
8262,PHT,36.33583333,-88.38444444,Henry County
8267,PHX,33.43416667,-112.01166667,Phoenix Sky Harbor International
8270,PIA,40.66416667,-89.69333333,General Downing - Peoria International
8272,PIB,31.46722222,-89.33694444,Hattiesburg-Laurel Regional
8277,PIE,27.91,-82.6875,St Pete Clearwater International
8279,PIH,42.90972222,-112.59583333,Pocatello Regional
8280,PII,64.85,-147.78666667,Phillips Field
8284,PIM,32.84055556,-84.8825,Harris County
8291,PIP,57.58027778,-157.57194444,Pilot Point Airport
8293,PIR,44.38277778,-100.28583333,Pierre Regional
8298,PIT,40.49138889,-80.23277778,Pittsburgh International
8303,PIZ,69.73277778,-163.00527778,Point Lay LRRS
8305,PJB,34.25694444,-111.33916667,Payson Airport
8310,PJS,60.05,-148.06666667,Port San Juan Airport
8312,PKA,60.70305556,-161.77833333,Napaskiak Airport
8314,PKB,39.345,-81.43916667,Mid-Ohio Valley Regional
8318,PKD,46.90055556,-95.07305556,Park Rapids Municipal-Konshok Field
8343,PLK,36.62583333,-93.22888889,M. Graham Clark Downtown
8349,PLN,45.57083333,-84.79666667,Pellston Regional Airport of Emmet County
8366,PLY,41.365,-86.30027778,Plymouth Municipal
8374,PMB,48.9425,-97.24055556,Pembina Municipal
8382,PMD,34.62944444,-118.08444444,Palmdale USAF Plant 42
8389,PMH,38.84055556,-82.84722222,Greater Portsmouth Regional
8394,PML,56.00611111,-160.56083333,Port Moller Airport
8406,PMU,61.96666667,-160.23333333,Paimiut Airport
8422,PNC,36.73194444,-97.09972222,Ponca City Regional
8428,PNE,40.08194444,-75.01055556,Northeast Philadelphia
8429,PNF,58.68333333,-156.83333333,Peterson's Point Airport
8456,PNS,30.47333333,-87.18666667,Pensacola International
8457,PNX,33.7,-96.66666667,Sherman-Denison Airport
8464,POB,35.17083333,-79.01444444,Pope AAF
8466,POC,34.09166667,-117.78166667,Brackett Field
8469,POE,31.04472222,-93.19166667,Polk AAF
8470,POF,36.71111111,-90.31388889,Hayes Field
8475,POH,42.74277778,-94.64722222,Pocahontas Municipal
8486,POQ,55.2,-132.23333333,Polk Inlet Airport
8495,POU,41.62666667,-73.88416667,Dutchess County
8504,POY,44.86722222,-108.79333333,Powell Municipal
8509,PPC,66.81416667,-150.64361111,Prospect Creek Airport
8514,PPF,37.33083333,-95.50611111,Tri City
8521,PPM,26.2475,-80.11111111,Pompano Beach Airpark
8530,PPV,56.32916667,-133.60833333,Port Protection Airport
8534,PQI,46.68888889,-68.04472222,Northern Maine Regional at Presque Isle
8541,PQS,61.93444444,-162.89944444,Pilot Station Airport
8545,PRB,35.67277778,-120.62694444,Paso Robles Municipal
8548,PRC,34.65472222,-112.41916667,Ernest A. Love Field
8563,PRT,58.41083333,-134.95638889,Coast Guard Heliport
8570,PRX,33.63666667,-95.45083333,Cox Field
8574,PRZ,44.28694444,-120.90388889,Prineville Airport
8578,PSB,40.88444444,-78.08722222,Mid State
8580,PSC,46.26472222,-119.11916667,Tri Cities
8588,PSF,42.4275,-73.29083333,Pittsfield Municipal
8591,PSG,56.80138889,-132.94611111,Petersburg James A Johnson
8594,PSK,37.13722222,-80.67861111,New River Valley
8596,PSM,43.07805556,-70.82333333,Portsmouth International at Pease
8598,PSN,31.77972222,-95.70638889,Palestine Municipal
8601,PSP,33.82972222,-116.50666667,Palm Springs International
8607,PSX,28.7275,-96.25083333,Palacios Municipal
8613,PTA,60.20444444,-154.31888889,Port Alsworth Airport
8614,PTC,55.78333333,-133.6,Port Alice Airport
8615,PTD,56.24722222,-134.64638889,Port Alexander Airport
8625,PTH,56.95916667,-158.63333333,Port Heiden Airport
8628,PTK,42.66555556,-83.42055556,Oakland County International
8629,PTL,56.29611111,-134.66138889,Port Armstrong Airport
8631,PTN,29.70944444,-91.33888889,Harry P Williams Memorial
8634,PTR,57.83333333,-153.25,Pleasant Harbour Airport
8636,PTS,37.44944444,-94.73111111,Atkinson Municipal
8638,PTT,37.7025,-98.74694444,Pratt Regional
8640,PTU,59.01583333,-161.82527778,Platinum Airport
8643,PTV,36.02944444,-119.06277778,Porterville Municipal
8645,PTW,40.23944444,-75.55666667,Heritage Field
8655,PUB,38.29,-104.49805556,Pueblo Memorial
8657,PUC,39.61388889,-110.75138889,Carbon County Regional/Buck Davis Field
8667,PUL,47.73388889,-122.64722222,Port of Poulsbo Marina Moorage Seaplane Base
8669,PUO,70.25194444,-148.34277778,Prudhoe Bay Airport
8680,PUW,46.74388889,-117.10944444,Pullman Moscow Regional
8691,PVC,42.07222222,-70.22083333,Provincetown Municipal
8693,PVD,41.72388889,-71.42833333,Theodore Francis Green State
8694,PVF,38.72416667,-120.75333333,Placerville Airport
8707,PVU,40.21916667,-111.72333333,Provo Municipal
8709,PVW,34.16805556,-101.71722222,Hale County
8710,PVY,59.31666667,-154.91666667,Pope Vanoy Airport
8714,PWA,35.53416667,-97.64694444,Wiley Post
8720,PWK,42.11416667,-87.90166667,Chicago Executive
8723,PWM,43.64555556,-70.30861111,Portland International Jetport
8724,PWR,56.38333333,-134.65,Big and Little Port Walter
8727,PWT,47.49027778,-122.76472222,Bremerton National
8738,PYA,60.0575,-148.05111111,Port Ashton Airport
8744,PYL,60.68583333,-147.91666667,Perry Island Seaplane Base
8746,PYM,41.90916667,-70.72888889,Plymouth Municipal
8764,QAF,41.97583333,-114.65805556,Jackpot/Hayden Field
8768,QAJ,33.35305556,-110.66722222,San Carlos Apache
8770,QAK,41.51638889,-82.86944444,Carl R Keller Field
8771,QAL,41.60277778,-82.68472222,Kelleys Island Land Field
8773,LLX,44.56916667,-72.01805556,Caledonia County
8779,QBI,38.78055556,-110.32916667,Oman Ranch
8781,QBM,41.63666667,-82.82833333,Put-In-Bay Airport
8782,QBN,41.685,-82.805,Middle Bass Island Airport
8784,QBT,44.76111111,-115.10722222,Indian Creek Usfs
8787,QBY,41.71805556,-82.82111111,North Bass Island Airport
8790,CJR,38.52555556,-77.85972222,Culpeper Regional
8799,QEM,33.55833333,-117.71111111,Emerald Bay Airport
8812,QKV,19.64722222,-156.01194444,Kona Keahole
8814,QMA,34.01305556,-84.59694444,Cobb County McCollum Field
8818,QMN,42.00083333,-71.19833333,Mansfield Municipal
8826,QPT,44.76861111,-69.37444444,Pittsfield Municipal
8827,QQB,60.15,-154.61666667,Keyes Point Airport
8828,QQC,66.78333333,-162.01666667,Nimiuk Point Airport
8830,QQE,67.11666667,-163.75,Sealing Point Airport
8831,QQG,39.60833333,-77.00777778,Carroll County Regional/Jack B. Poage Field
8833,QQJ,46.525,-114.05277778,Stevensville Airport
8835,QQL,48.72583333,-116.29527778,Boundary County
8839,QQN,36.39888889,-119.10694444,Woodlake Airport
8841,QQQ,39.22416667,-121.00305556,Nevada County Air Park
8842,QQT,33.35722222,-84.57194444,Atlanta Regional Falcon Field
8844,QQU,35.65194444,-109.0675,Window Rock Airport
8847,QQX,38.65277778,-122.89861111,Healdsburg Municipal
8849,QQY,29.89277778,-97.86305556,San Marcos Municipal
8853,QSO,42.10111111,-72.03888889,Southbridge Municipal
8854,WPO,38.83138889,-107.64583333,North Fork Valley
8858,RAC,42.76111111,-87.81388889,John H. Batten
8871,RAL,33.95194444,-117.445,Riverside Municipal
8877,RAP,44.04527778,-103.05722222,Rapid City Regional
8886,RAX,40.31666667,-74.03305556,Greely Helipad
8891,RBB,57.51638889,-157.38777778,Randy Field
8893,RBD,32.68083333,-96.86833333,Dallas Executive
8895,RBF,34.26388889,-116.85611111,Big Bear City Airport
8897,RBG,43.23888889,-123.35583333,Roseburg Regional
8898,RBH,58.55,-155.8,Brooks Lodge Airport
8901,RBL,40.15027778,-122.25222222,Red Bluff Municipal
8902,RBN,24.62861111,-82.87333333,Fort Jefferson Airport
8907,RBY,64.72722222,-155.47,Ruby Airport
8909,RCA,44.145,-103.10361111,Ellsworth AFB
8913,RCE,48.61222222,-123.13861111,Roche Harbor Airport
8924,RCT,43.89166667,-85.51666667,Miller Field
8928,RDB,68.03222222,-162.89916667,Red Dog Airport
8932,RDD,40.50888889,-122.29333333,Redding Municipal
8934,RDG,40.37861111,-75.96527778,Reading Regional/Carl A Spaatz Field
8936,RDM,44.25416667,-121.15,Roberts Field
8938,RDR,47.96111111,-97.40111111,Grand Forks AFB
8942,RDU,35.87777778,-78.7875,Raleigh-Durham International
8944,RDV,61.78805556,-157.35027778,Red Devil Airport
8950,REB,34.08527778,-117.14638889,Redlands Municipal
8952,RED,40.6775,-77.62694444,Mifflin County
8953,REE,33.59638889,-102.04194444,Reese AFB
8956,REH,38.71944444,-75.12666667,Rehoboth Aircrafters
8978,RFD,42.19527778,-89.09722222,Chicago/Rockford International
8995,RHI,45.63083333,-89.46666667,Rhinelander/Oneida County
9002,RIC,37.50527778,-77.31972222,Richmond International
9005,RID,39.75611111,-84.84277778,Richmond Municipal
9006,RIE,45.47916667,-91.72277778,Rice Lake Airport
9009,RIF,38.73416667,-112.10166667,Richfield Municipal
9015,RIL,39.52666667,-107.72805556,Garfield County Regional
9018,RIR,33.98888889,-117.41,Flabob
9020,RIV,33.88083333,-117.25944444,March ARB
9022,RIW,43.06416667,-108.45972222,Riverton Regional
9038,RKD,44.06,-69.09916667,Knox County Regional
9042,RKP,28.08611111,-97.04361111,Aransas County
9044,RKR,35.02166667,-94.62138889,Robert S Kerr
9046,RKS,41.59416667,-109.06527778,Rock Springs Sweetwater County
9051,RKW,35.92222222,-84.68972222,Rockwood Municipal
9053,RLA,37.93555556,-91.81361111,Rolla Downtown
9055,RLD,46.30555556,-119.30416667,Richland Airport
9060,RLU,67.10166667,-156.92916667,Bornite Upper
9064,RME,43.23388889,-75.40694444,Griffiss International
9067,RMG,34.35083333,-85.15861111,Richard B Russell Regional J H Towers Field
9073,RMN,38.39805556,-77.45555556,Stafford Regional
9077,RMP,65.50777778,-150.14083333,Rampart Airport
9087,RNC,35.69861111,-85.84388889,Warren County Memorial
9089,RND,29.52888889,-98.27805556,Randolph AFB
9094,RNG,40.09388889,-108.76305556,Rangely Airport
9100,RNO,39.49916667,-119.76805556,Reno/Tahoe International
9105,RNT,47.49305556,-122.21583333,Renton Municipal
9109,ROA,37.32555556,-79.97555556,Roanoke Regional/Woodrum Field
9115,ROC,43.11916667,-77.67194444,Greater Rochester International
9117,ROG,36.3725,-94.10694444,Rogers Municipal Carter Field
9120,ROL,40.27833333,-110.05138889,Roosevelt Municipal
9143,ROW,33.30166667,-104.53055556,Roswell International Air Center
9145,ROX,48.85611111,-95.69694444,Roseau Municipal/Rudy Billberg Field
9152,RPX,46.475,-108.54333333,Roundup Airport
9154,RQA,36.58861111,-118.04944444,Lone Pine Airport
9156,RQB,43.4325,-113.05555556,Big Southern Butte
9158,RQC,46.44861111,-109.85277778,Wheatland County at Harlowton
9160,RQD,36.75861111,-120.37138889,William Robert Johnston Municipal
9163,RQE,46.21333333,-119.79555556,Prosser Airport
9165,RQF,35.48333333,-81.16111111,Lincolnton-Lincoln County Regional
9166,RQG,35.58333333,-89.58722222,Covington Municipal
9167,RQH,40.38916667,-75.29055556,Pennridge
9168,RQI,62.23388889,-154.73472222,Nixon Fork Mine Airport
9171,RQK,35.68555556,-117.69194444,China Lake Naws
9173,RQL,41.23027778,-87.50777778,Lowell Airport
9175,RQM,42.42583333,-71.79277778,Sterling Airport
9177,RQN,42.10361111,-123.6825,Illinois Valley
9180,RQP,32.95388889,-103.40888889,Lea County-Zip Franklin Memorial
9182,RQQ,38.67388889,-121.87194444,Watts/Woodland
9183,RQR,45.42555556,-84.91333333,Harbor Springs Airport
9186,RQT,33.48555556,-101.81277778,Lubbock Executive Airpark
9187,RQU,35.61972222,-119.35361111,Wasco-Kern County
9189,RQV,40.61944444,-111.99277778,South Valley Regional
9191,RQW,37.85972222,-112.81583333,Parowan Airport
9192,RQX,39.2425,-102.28527778,Kit Carson County
9194,RQY,31.92027778,-98.59916667,Comanche County-City
9196,RQZ,30.42777778,-86.68916667,Hurlburt Field
